"SITE_ID","YEAR","VISIT_NO","SITENAME","SITETYPE","REPEAT","LON_DD","LAT_DD","XLON_DD","XLAT_DD","XCOORD_SOURCE","STRAHLER","ST_ORDER","DATE_COL","USED","SITESAMP","FLOWSITE","XSTATUS","VALXSTAT","EVALSTATUS","TNT","STRATUM","WGT_WSA","INDXVIS_EXTENT","SAMPCHEM","INDXVIS_CHEM","INDEXYR_CHEM","INDEXVIS_CHEM","SAMPBENT","INDEX_SAMPTYPE","INDEXYR_BENT","INDEXVIS_BENT","INDXVIS_BENT","SAMPPHAB","INDXVIS_PHAB","INDEXYR_PHAB","INDEXVIS_PHAB","STATE","STATE_NM","COUNTY","EPAREGION","WESTEAST","RT_WSA","XELEV","WSAREA","ECO3","ECO3_NM","ECOWSA9","ECOWSA3","NAECO3","NAECO2","NAECO2_NM","NAECO1","ECOREPORT","HUC2","HUC4","HUC6","HUC8","HUC8_NM","IM_FLAG","IM_COMMENT" 
"1993SBOIA049",2004,1,"LITTLE JACKS","WESTHAND"," ",-116.10283,42.73022,-116.10283,42.73022,"GPS",4,"4th",06/28/2004,"N","Y","WADEABLE","SAMPLEABLE","WADEABLE","TS","T"," ",0,"NO","YES","NO",2004,1,"NA"," ",2004,1,"NO","YES","NO",2004,1,"ID","IDAHO","OWYHEE","REGION_10","WEST","R",1077,191.72,"12","SNAKE RIVER BASIN","XER","WMTNS","10.1.3","10.1","WESTERN INTERIOR BASINS AND RANGES","10","NORTH AMERICAN DESERTS","17","1705","170501","17050102","BRUNEAU"," ","INTERBASIN TRANSFER-WSAREA VALUE IS FOR LOCAL (TRUE WSAREA=275.1865 KM2)" 
"1995SBOIC020",2004,1,"TWENTYMILE CREEK","WESTHAND"," ",-115.98106,45.13492,-115.98106,45.13492,"GPS",3,"3rd",08/04/2004,"N","Y","WADEABLE","SAMPLEABLE","WADEABLE","TS","T"," ",0,"NO","YES","NO",2004,1,"NA"," ",2004,1,"NO","YES","NO",2004,1,"ID","IDAHO","VALLEY","REGION_10","WEST","S",1782,31.0629,"16","IDAHO BATHOLITH","WMT","WMTNS","6.2.3","6.2","WESTERN CORDILLERA","6","WESTERN CORDILLERA","17","1705","170501","17050123","NORTH FORK PAYETTE"," "," " 
"1995SPOCA003",2004,1,"BELL MARSH CREEK","WESTHAND"," ",-112.2835,42.68706,-112.2835,42.68706,"GPS",2,"2nd",07/14/2004,"N","Y","WADEABLE","SAMPLEABLE","WADEABLE","TS","T"," ",0,"NO","YES","NO",2004,1,"NA"," ",2004,1,"NO","YES","NO",2004,1,"ID","IDAHO","BANNOCK","REGION_10","WEST","S",1640,13.8715,"80","NORTHERN BASIN AND RANGE","XER","WMTNS","10.1.4","10.1","WESTERN INTERIOR BASINS AND RANGES","10","NORTH AMERICAN DESERTS","17","1704","170402","17040208","PORTNEUF"," "," " 
"1997SBOIA019",2004,1,"SECOND FORK SQUAW CREEK","WESTHAND"," ",-116.23931,44.3463,-116.23931,44.3463,"GPS",1," ",07/21/2004,"N","Y","WADEABLE","SAMPLEABLE","WADEABLE","TS","T"," ",0,"NO","YES","NO",2004,1,"NA"," ",2004,1,"NO","YES","NO",2004,1,"ID","IDAHO","GEM","REGION_10","WEST","S",1182,74.9202,"12","SNAKE RIVER BASIN","XER","WMTNS","6.2.8","6.2","WESTERN CORDILLERA","6","WESTERN CORDILLERA","17","1705","170501","17050122","PAYETTE"," "," " 
"1997SBOIB071",2004,1,"DAGGER CREEK","WESTHAND"," ",-115.3236,44.47557,-115.3236,44.47557,"GPS",2,"2nd",08/05/2004,"N","Y","WADEABLE","SAMPLEABLE","WADEABLE","TS","T"," ",0,"NO","YES","NO",2004,1,"NA"," ",2004,1,"NO","YES","NO",2004,1,"ID","IDAHO","VALLEY","REGION_10","WEST","S",1944,10.6738,"16","IDAHO BATHOLITH","WMT","WMTNS","6.2.3","6.2","WESTERN CORDILLERA","6","WESTERN CORDILLERA","17","1706","170602","17060205","UPPER MIDDLE FORK SALMON"," "," " 
"1997SIDFM118",2004,1,"HOO DOO CREEK","WESTHAND"," ",-114.56209,45.05314,-114.56209,45.05314,"GPS",1," ",08/16/2004,"N","Y","WADEABLE","SAMPLEABLE","WADEABLE","TS","T"," ",0,"NO","YES","NO",2004,1,"NA"," ",2004,1,"NO","YES","NO",2004,1,"ID","IDAHO","LEMHI","REGION_10","WEST","S",2509,1.6899,"16","IDAHO BATHOLITH","WMT","WMTNS","6.2.3","6.2","WESTERN CORDILLERA","6","WESTERN CORDILLERA","17","1706","170602","17060206","LOWER MIDDLE FORK SALMON"," "," " 
"1997SPOCA004",2004,1,"WEST FORK MINK CREEK","WESTHAND"," ",-112.42346,42.72383,-112.42346,42.72383,"GPS",2,"2nd",07/12/2004,"N","Y","WADEABLE","SAMPLEABLE","WADEABLE","TS","T"," ",0,"NO","YES","NO",2004,1,"NA"," ",2004,1,"NO","YES","NO",2004,1,"ID","IDAHO","BANNOCK","REGION_10","WEST","R",1617,17.2276,"80","NORTHERN BASIN AND RANGE","XER","WMTNS","10.1.4","10.1","WESTERN INTERIOR BASINS AND RANGES","10","NORTH AMERICAN DESERTS","17","1704","170402","17040208","PORTNEUF"," "," " 
"1998SIDFA041",2004,1,"WEBBER CREEK","WESTHAND"," ",-112.69213,44.36224,-112.69213,44.36224,"GPS",5,"5th +",07/19/2004,"N","Y","WADEABLE","SAMPLEABLE","WADEABLE","TS","T"," ",0,"NO","YES","NO",2004,1,"NA"," ",2004,1,"NO","YES","NO",2004,1,"ID","IDAHO","CLARK","REGION_10","WEST","S",2107,40.4653,"17","MIDDLE ROCKIES","WMT","WMTNS","6.2.3","6.2","WESTERN CORDILLERA","6","WESTERN CORDILLERA","17","1704","170402","17040215","MEDICINE LODGE"," "," " 
"1998SIDFB065",2004,1,"LIME CREEK","WESTHAND"," ",-113.45559,44.00835,-113.45559,44.00835,"GPS",5,"5th +",07/26/2004,"N","Y","WADEABLE","SAMPLEABLE","WADEABLE","TS","T"," ",0,"NO","YES","NO",2004,1,"NA"," ",2004,1,"NO","YES","NO",2004,1,"ID","IDAHO","CUSTER","REGION_10","WEST","T",2219,1.3083,"17","MIDDLE ROCKIES","WMT","WMTNS","6.2.3","6.2","WESTERN CORDILLERA","6","WESTERN CORDILLERA","17","1704","170402","17040217","LITTLE LOST IDAHO"," "," " 
"1998SIDFB124",2004,1,"EAST FORK PAHSIMEROI","WESTHAND"," ",-113.69495,44.14997,-113.69495,44.14997,"GPS",2,"2nd",07/28/2004,"N","Y","WADEABLE","SAMPLEABLE","WADEABLE","TS","T"," ",0,"NO","YES","NO",2004,1,"NA"," ",2004,1,"NO","YES","NO",2004,1,"ID","IDAHO","CUSTER","REGION_10","WEST","S",2377,38.0331,"17","MIDDLE ROCKIES","WMT","WMTNS","6.2.3","6.2","WESTERN CORDILLERA","6","WESTERN CORDILLERA","17","1706","170602","17060202","PAHSIMEROI"," "," " 
"2002STWFV008",2004,1,"GOOSE CREEK","WESTHAND"," ",-114.26379,42.08026,-114.26379,42.08026,"GPS",3,"3rd",07/06/2004,"N","Y","WADEABLE","SAMPLEABLE","WADEABLE","TS","T"," ",0,"NO","YES","NO",2004,1,"NA"," ",2004,1,"NO","YES","NO",2004,1,"ID","IDAHO","CASSIA","REGION_10","WEST","R",1866,41.7707,"80","NORTHERN BASIN AND RANGE","XER","WMTNS","10.1.4","10.1","WESTERN INTERIOR BASINS AND RANGES","10","NORTH AMERICAN DESERTS","17","1704","170402","17040211","GOOSE"," "," " 
"2004SDEQA013",2004,1,"SHOSHONE CREEK","WESTHAND"," ",-114.53395,42.02202,-114.53395,42.02202,"GPS",5,"5th +",07/08/2004,"N","Y","WADEABLE","SAMPLEABLE","WADEABLE","TS","T"," ",0,"NO","YES","NO",2004,1,"NA"," ",2004,1,"NO","YES","NO",2004,1,"ID","IDAHO","TWIN FALLS","REGION_10","WEST","S",1652,623.8417,"80","NORTHERN BASIN AND RANGE","XER","WMTNS","10.1.3","10.1","WESTERN INTERIOR BASINS AND RANGES","10","NORTH AMERICAN DESERTS","17","1704","170402","17040213","SALMON FALLS"," "," " 
"CC0001",2004,1,"CHERRY CREEK","WESTHAND"," ",-104.76432,39.35901,-104.76432,39.35901,"GPS",4,"4th",07/01/2004,"N","Y","WADEABLE","SAMPLEABLE","WADEABLE","TS","T"," ",0,"NO","YES","NO",2004,1,"NA"," ",2004,1,"NO","YES","NO",2004,1,"CO","COLORADO","DOUGLAS","REGION__8","WEST","S",1881,438.5132,"26","SOUTHWESTERN TABLELANDS","SPL","PLNLOW","9.4.3","9.4","SOUTH CENTRAL SEMI-ARID PRAIRIES","9","SOUTH CENTRAL SEMI-ARID PRAIRIES","10","1019","101900","10190003","MIDDLE SOUTH PLATTE-CHE Y CREEK"," "," " 
"IAW02344-0096",2004,1,"BEAVER BRANCH","EASTPROB","Y",-94.089731,41.950878,-94.08996,41.95086,"GPS",2,"2nd",06/14/2004,"Y","Y","WADEABLE","SAMPLEABLE","WADEABLE","TS","T","IA",1063.791335,"YES"," ","YES",2004,1,"YES","REACHWIDE",2004,1,"YES"," ","YES",2004,1,"IA","IOWA","BOONE","REGION__7","EAST","T",296,38.79,"47","WESTERN CORN BELT PLAINS","TPL","PLNLOW","9.2.3","9.2","TEMPERATE PRAIRIES","9","TEMPERATE PRAIRIES","07","0710","071000","07100004","MIDDLE DES MOINES"," "," " 
"IAW02344-0096",2004,2,"BEAVER BRANCH","EASTPROB","Y",-94.089731,41.950878,-94.08996,41.95088,"GPS",2,"2nd",07/16/2004,"N","Y","WADEABLE","SAMPLEABLE","WADEABLE","TS","T","IA", ,"NO"," ","NO",2004,1,"YES","REACHWIDE",2004,1,"NO"," ","NO",2004,1,"IA","IOWA","BOONE","REGION__7","EAST","T",296,38.79,"47","WESTERN CORN BELT PLAINS","TPL","PLNLOW","9.2.3","9.2","TEMPERATE PRAIRIES","9","TEMPERATE PRAIRIES","07","0710","071000","07100004","MIDDLE DES MOINES"," "," " 
"IAW02344-0097",2004,1,"WEST NISHNABOTNA RIVER","EASTPROB","Y",-95.400885,41.332723,-95.40079,41.33257,"GPS",5,"5th +",07/29/2004,"Y","Y","WADEABLE","SAMPLEABLE","WADEABLE","TS","T","IA",270.983997,"YES"," ","YES",2004,1,"YES","REACHWIDE",2004,1,"YES"," ","YES",2004,1,"IA","IOWA","POTTAWATTAMIE","REGION__7","EAST","T",327,1630.16,"47","WESTERN CORN BELT PLAINS","TPL","PLNLOW","9.2.3","9.2","TEMPERATE PRAIRIES","9","TEMPERATE PRAIRIES","10","1024","102400","10240002","WEST NISHNABOTNA"," "," " 
"IAW02344-0097",2004,2,"WEST NISHNABOTNA","EASTPROB","Y",-95.400885,41.332723,-95.4006,41.33256,"GPS",5,"5th +",10/11/2004,"N","Y","WADEABLE","SAMPLEABLE","WADEABLE","TS","T","IA", ,"NO"," ","NO",2004,1,"YES","REACHWIDE",2004,1,"NO"," ","NO",2004,1,"IA","IOWA","POTTAWATTAMIE","REGION__7","EAST","T",327,1630.16,"47","WESTERN CORN BELT PLAINS","TPL","PLNLOW","9.2.3","9.2","TEMPERATE PRAIRIES","9","TEMPERATE PRAIRIES","10","1024","102400","10240002","WEST NISHNABOTNA"," "," " 
"IAW02344-0098",2004,1,"UNN TRIB. OTTER CREEK","EASTPROB","Y",-91.92294,42.70254,-91.92313,42.70254,"GPS",3,"3rd",07/21/2004,"Y","Y","WADEABLE","SAMPLEABLE","WADEABLE","TS","T","IA",1450.089545,"YES"," ","YES",2004,1,"YES","REACHWIDE",2004,1,"YES"," ","YES",2004,1,"IA","IOWA","FAYETTE","REGION__7","EAST","S",316,32.99,"47","WESTERN CORN BELT PLAINS","TPL","PLNLOW","9.2.3","9.2","TEMPERATE PRAIRIES","9","TEMPERATE PRAIRIES","07","0708","070801","07080102","UPPER WAPSIPINICON"," "," " 
"IAW02344-0098",2004,2,"UNNAMED TRIBUTARY OTTER CREEK","EASTPROB","Y",-91.92294,42.70254,-91.92311,42.70253,"GPS",3,"3rd",08/09/2004,"N","Y","WADEABLE","SAMPLEABLE","WADEABLE","TS","T","IA", ,"NO"," ","NO",2004,1,"YES","REACHWIDE",2004,1,"NO"," ","NO",2004,1,"IA","IOWA","FAYETTE","REGION__7","EAST","S",316,32.99,"47","WESTERN CORN BELT PLAINS","TPL","PLNLOW","9.2.3","9.2","TEMPERATE PRAIRIES","9","TEMPERATE PRAIRIES","07","0708","070801","07080102","UPPER WAPSIPINICON"," "," " 
"IAW02344-0099",2004,1,"LIZARD CREEK","EASTPROB","Y",-94.33916,42.537422,-94.33945,42.53732,"GPS",4,"4th",08/16/2004,"Y","Y","WADEABLE","SAMPLEABLE","WADEABLE","TS","T","IA",346.5118524,"YES"," ","YES",2004,1,"YES","REACHWIDE",2004,1,"YES"," ","YES",2004,1,"IA","IOWA","WEBSTER","REGION__7","EAST","R",329,651.31,"47","WESTERN CORN BELT PLAINS","TPL","PLNLOW","9.2.3","9.2","TEMPERATE PRAIRIES","9","TEMPERATE PRAIRIES","07","0710","071000","07100004","MIDDLE DES MOINES"," "," " 
"IAW02344-0099",2004,2,"LIZARD CREEK","EASTPROB","Y",-94.33916,42.537422,-94.33961,42.53737,"GPS",4,"4th",10/05/2004,"N","Y","WADEABLE","SAMPLEABLE","WADEABLE","TS","T","IA", ,"NO"," ","NO",2004,1,"YES","REACHWIDE",2004,1,"NO"," ","NO",2004,1,"IA","IOWA","WEBSTER","REGION__7","EAST","B",329,651.31,"47","WESTERN CORN BELT PLAINS","TPL","PLNLOW","9.2.3","9.2","TEMPERATE PRAIRIES","9","TEMPERATE PRAIRIES","07","0710","071000","07100004","MIDDLE DES MOINES"," "," " 
"IAW02344-0100",2004,1,"BELL CREEK","EASTPROB"," ",-91.672783,42.979807,-91.67287,42.97979,"GPS",2,"2nd",07/20/2004,"Y","Y","WADEABLE","SAMPLEABLE","WADEABLE","TS","T","IA",144.7919423,"YES"," ","YES",2004,1,"YES","REACHWIDE",2004,1,"YES"," ","YES",2004,1,"IA","IOWA","FAYETTE","REGION__7","EAST","T",263,18.04,"52","DRIFTLESS AREA","UMW","PLNLOW","8.1.5","8.1","MIXED WOOD PLAINS","8","MIXED WOOD PLAINS","07","0706","070600","07060004","TURKEY"," "," " 
"IAW02344-0102",2004,1,"WAPSIPINICON","EASTPROB"," ",-92.379581,42.993331,-92.37999,42.99298,"GPS",4,"4th",10/07/2004,"Y","Y","WADEABLE","SAMPLEABLE","WADEABLE","TS","T","IA",472.3419108,"YES"," ","YES",2004,1,"YES","REACHWIDE",2004,1,"YES"," ","YES",2004,1,"IA","IOWA","CHICKASAW","REGION__7","EAST","S",320,421.3,"47","WESTERN CORN BELT PLAINS","TPL","PLNLOW","9.2.3","9.2","TEMPERATE PRAIRIES","9","TEMPERATE PRAIRIES","07","0708","070801","07080102","UPPER WAPSIPINICON"," "," " 
"IAW02344-0103",2004,1,"DRY CREEK","EASTPROB"," ",-96.40991,43.079063,-96.4101,43.07906,"GPS",3,"3rd",06/22/2004,"Y","Y","WADEABLE","SAMPLEABLE","WADEABLE","TS","T","IA",748.6864551,"YES"," ","YES",2004,1,"YES","REACHWIDE",2004,1,"YES"," ","YES",2004,1,"IA","IOWA","SIOUX","REGION__7","EAST","S",384,93.12,"47","WESTERN CORN BELT PLAINS","TPL","PLNLOW","9.2.3","9.2","TEMPERATE PRAIRIES","9","TEMPERATE PRAIRIES","10","1017","101702","10170203","LOWER BIG SIOUX"," "," " 
"IAW02344-0104",2004,1,"BATTLE CREEK","EASTPROB"," ",-95.541019,42.446393,-95.54136,42.44633,"GPS",2,"2nd",07/08/2004,"Y","Y","WADEABLE","SAMPLEABLE","WADEABLE","TS","T","IA",748.6864551,"YES"," ","YES",2004,1,"YES","REACHWIDE",2004,1,"YES"," ","YES",2004,1,"IA","IOWA","IDA","REGION__7","EAST","T",399,13.51,"47","WESTERN CORN BELT PLAINS","TPL","PLNLOW","9.2.3","9.2","TEMPERATE PRAIRIES","9","TEMPERATE PRAIRIES","10","1023","102300","10230005","MAPLE"," "," " 
"IAW02344-0105",2004,1,"MOSQUITO CREEK","EASTPROB"," ",-95.688846,41.367449,-95.68917,41.36755,"GPS",4,"4th",06/30/2004,"Y","Y","PARTIAL WADEABLE","SAMPLEABLE","PARBYWADE","TS","T","IA",411.8420757,"YES"," ","YES",2004,1,"YES","REACHWIDE",2004,1,"YES"," ","YES",2004,1,"IA","IOWA","POTTAWATTAMIE","REGION__7","EAST","T",317,438.22,"47","WESTERN CORN BELT PLAINS","TPL","PLNLOW","9.2.3","9.2","TEMPERATE PRAIRIES","9","TEMPERATE PRAIRIES","10","1023","102300","10230006","BIG PAPILLION-MOSQUITO"," "," " 
"IAW02344-0106",2004,1,"WEST TARKIO CREEK","EASTPROB"," ",-95.204582,40.828811,-95.20491,40.82887,"GPS",3,"3rd",06/29/2004,"Y","Y","WADEABLE","SAMPLEABLE","WADEABLE","TS","T","IA",831.9209253,"YES"," ","YES",2004,1,"YES","REACHWIDE",2004,1,"YES"," ","YES",2004,1,"IA","IOWA","PAGE","REGION__7","EAST","T",332,87.91,"47","WESTERN CORN BELT PLAINS","TPL","PLNLOW","9.2.3","9.2","TEMPERATE PRAIRIES","9","TEMPERATE PRAIRIES","10","1024","102400","10240005","TARKIO-WOLF"," "," " 
"IAW02344-0108",2004,1,"BROPHY CREEK","EASTPROB"," ",-90.441038,41.772331,-90.44122,41.77225,"GPS",4,"4th",08/03/2004,"Y","Y","WADEABLE","SAMPLEABLE","WADEABLE","TS","T","IA",1628.460824,"YES"," ","YES",2004,1,"YES","REACHWIDE",2004,1,"YES"," ","YES",2004,1,"IA","IOWA","CLINTON","REGION__7","EAST","S",181,233.08,"47","WESTERN CORN BELT PLAINS","TPL","PLNLOW","9.2.3","9.2","TEMPERATE PRAIRIES","9","TEMPERATE PRAIRIES","07","0708","070801","07080103","LOWER WAPSIPINICON"," "," " 
"IAW02344-0109",2004,1,"WOLF CR.","EASTPROB"," ",-92.194157,42.315165,-92.19432,42.31522,"GPS",5,"5th +",09/06/2004,"Y","Y","WADEABLE","SAMPLEABLE","WADEABLE","TS","T","IA",472.3419108,"YES"," ","YES",2004,1,"YES","REACHWIDE",2004,1,"YES"," ","YES",2004,1,"IA","IOWA","BLACK HAWK","REGION__7","EAST","T",247,848.96,"47","WESTERN CORN BELT PLAINS","TPL","PLNLOW","9.2.3","9.2","TEMPERATE PRAIRIES","9","TEMPERATE PRAIRIES","07","0708","070802","07080205","MIDDLE CEDAR"," "," " 
"IAW02344-0110",2004,1,"MAPLE RIVER","EASTPROB"," ",-95.91925,42.069351,-95.91948,42.06932,"GPS",5,"5th +",09/11/2004,"Y","Y","WADEABLE","SAMPLEABLE","WADEABLE","TS","T","IA",536.2295,"YES"," ","YES",2004,1,"YES","REACHWIDE",2004,1,"YES"," ","YES",2004,1,"IA","IOWA","MONONA","REGION__7","EAST","T",322,1876.48,"47","WESTERN CORN BELT PLAINS","TPL","PLNLOW","9.2.3","9.2","TEMPERATE PRAIRIES","9","TEMPERATE PRAIRIES","10","1023","102300","10230005","MAPLE"," "," " 
"IAW02344-0111",2004,1,"NORTH RACOON RIVER","EASTPROB"," ",-94.98582,42.410587,-94.98625,42.41066,"GPS",4,"4th",08/18/2004,"Y","Y","WADEABLE","SAMPLEABLE","WADEABLE","TS","T","IA",346.5118524,"YES"," ","YES",2004,1,"YES","REACHWIDE",2004,1,"YES"," ","YES",2004,1,"IA","IOWA","SAC","REGION__7","EAST","T",358,942.91,"47","WESTERN CORN BELT PLAINS","TPL","PLNLOW","9.2.3","9.2","TEMPERATE PRAIRIES","9","TEMPERATE PRAIRIES","07","0710","071000","07100006","NORTH RACCOON"," "," " 
"IAW02344-0112",2004,1,"MONTGOMERY CREEK","EASTPROB"," ",-95.078212,42.993593,-95.07864,42.99355,"GPS",2,"2nd",07/27/2004,"Y","Y","WADEABLE","SAMPLEABLE","WADEABLE","TS","T","IA",370.6368651,"YES"," ","YES",2004,1,"YES","REACHWIDE",2004,1,"YES"," ","YES",2004,1,"IA","IOWA","CLAY","REGION__7","EAST","S",387,64.54,"47","WESTERN CORN BELT PLAINS","TPL","PLNLOW","9.2.3","9.2","TEMPERATE PRAIRIES","9","TEMPERATE PRAIRIES","10","1023","102300","10230003","LITTLE SIOUX"," "," " 
"IAW02344-0113",2004,1,"JOHNS CREEK","EASTPROB"," ",-95.997976,42.651073,-95.99831,42.65101,"GPS",3,"3rd",06/23/2004,"Y","Y","WADEABLE","SAMPLEABLE","WADEABLE","TS","T","IA",370.6368651,"YES"," ","YES",2004,1,"YES","REACHWIDE",2004,1,"YES"," ","YES",2004,1,"IA","IOWA","PLYMOUTH","REGION__7","EAST","T",381,101.29,"47","WESTERN CORN BELT PLAINS","TPL","PLNLOW","9.2.3","9.2","TEMPERATE PRAIRIES","9","TEMPERATE PRAIRIES","10","1023","102300","10230004","MONONA-HARRISON DITCH"," "," " 
"IAW02344-0114",2004,1,"MIDDLE FORK GRAND RIVER","EASTPROB"," ",-94.26257,40.666649,-94.26271,40.66661,"GPS",2,"2nd",06/28/2004,"Y","Y","WADEABLE","SAMPLEABLE","WADEABLE","TS","T","IA",1669.539802,"YES"," ","YES",2004,1,"YES","REACHWIDE",2004,1,"YES"," ","YES",2004,1,"IA","IOWA","RINGGOLD","REGION__7","EAST","T",324,22.61,"40","CENTRAL IRREGULAR PLAINS","TPL","PLNLOW","9.2.4","9.2","TEMPERATE PRAIRIES","9","TEMPERATE PRAIRIES","10","1028","102801","10280101","UPPER GRAND"," "," " 
"IAW02344-0115",2004,1,"EAST NODAWAY RIVER","EASTPROB"," ",-94.910048,40.871349,-94.91003,40.87174,"GPS",4,"4th",08/17/2004,"Y","Y","WADEABLE","SAMPLEABLE","WADEABLE","TS","T","IA",2474.937821,"YES"," ","YES",2004,1,"YES","REACHWIDE",2004,1,"YES"," ","YES",2004,1,"IA","IOWA","TAYLOR","REGION__7","EAST","T",311,657.87,"47","WESTERN CORN BELT PLAINS","TPL","PLNLOW","9.2.3","9.2","TEMPERATE PRAIRIES","9","TEMPERATE PRAIRIES","10","1024","102400","10240010","NODAWAY"," "," " 
"IAW02344-0117",2004,1,"OLD MANS CREEK","EASTPROB"," ",-91.54602,41.551162,-91.54621,41.55122,"GPS",4,"4th",07/14/2004,"Y","Y","WADEABLE","SAMPLEABLE","WADEABLE","TS","T","IA",656.322,"YES"," ","YES",2004,1,"YES","REACHWIDE",2004,1,"YES"," ","YES",2004,1,"IA","IOWA","JOHNSON","REGION__7","EAST","S",189,643.87,"72","INTERIOR RIVER VALLEYS AND HILLS","TPL","PLNLOW","8.3.2","8.3","SOUTHEASTERN USA PLAINS","8","SOUTHEASTERN USA PLAINS","07","0708","070802","07080209","LOWER IOWA"," "," " 
"IAW02344-0118",2004,1,"BEAR CREEK","EASTPROB"," ",-90.92558,42.049414,-90.92529,42.04982,"GPS",4,"4th",07/15/2004,"Y","Y","ALTERED","SAMPLEABLE","ALTERED","TS","T","IA",2474.937821,"YES"," ","YES",2004,1,"YES","REACHWIDE",2004,1,"YES"," ","YES",2004,1,"IA","IOWA","JONES","REGION__7","EAST","S",232,130.96,"47","WESTERN CORN BELT PLAINS","TPL","PLNLOW","9.2.3","9.2","TEMPERATE PRAIRIES","9","TEMPERATE PRAIRIES","07","0706","070600","07060006","MAQUOKETA"," "," " 
"IAW02344-0119",2004,1,"SOLDIER RIVER","EASTPROB"," ",-95.840388,41.922856,-95.84087,41.92294,"GPS",5,"5th +",09/12/2004,"Y","Y","WADEABLE","SAMPLEABLE","WADEABLE","TS","T","IA",536.2295,"YES"," ","YES",2004,1,"YES","REACHWIDE",2004,1,"YES"," ","YES",2004,1,"IA","IOWA","MONONA","REGION__7","EAST","S",329,801.13,"47","WESTERN CORN BELT PLAINS","TPL","PLNLOW","9.2.3","9.2","TEMPERATE PRAIRIES","9","TEMPERATE PRAIRIES","10","1023","102300","10230001","BLACKBIRD-SOLDIER"," "," " 
"IAW02344-0120",2004,1,"BOYER RIVER","EASTPROB"," ",-95.224388,42.549931,-95.22449,42.54973,"GPS",3,"3rd",07/26/2004,"Y","Y","WADEABLE","SAMPLEABLE","WADEABLE","TS","T","IA",370.6368651,"YES"," ","YES",2004,1,"YES","REACHWIDE",2004,1,"YES"," ","YES",2004,1,"IA","IOWA","SAC","REGION__7","EAST","T",411,51.99,"47","WESTERN CORN BELT PLAINS","TPL","PLNLOW","9.2.3","9.2","TEMPERATE PRAIRIES","9","TEMPERATE PRAIRIES","10","1023","102300","10230007","BOYER"," "," " 
"IAW02344-0121",2004,1,"LITTLE BUFFALO CREEK","EASTPROB"," ",-93.797331,43.433471,-93.79752,43.4334,"GPS",2,"2nd",07/19/2004,"Y","Y","WADEABLE","SAMPLEABLE","WADEABLE","TS","T","IA",1063.791335,"YES"," ","YES",2004,1,"YES","REACHWIDE",2004,1,"YES"," ","YES",2004,1,"IA","IOWA","WINNEBAGO","REGION__7","EAST","T",370,38.77,"47","WESTERN CORN BELT PLAINS","TPL","PLNLOW","9.2.3","9.2","TEMPERATE PRAIRIES","9","TEMPERATE PRAIRIES","07","0710","071000","07100003","EAST FORK DES MOINES"," "," " 
"IAW02344-0122",2004,1,"FLOYD RIVER","EASTPROB"," ",-96.16457,42.814675,-96.16453,42.81388889,"GPS",4,"4th",07/28/2004,"Y","Y","WADEABLE","SAMPLEABLE","WADEABLE","TS","T","IA",370.6368651,"YES"," ","YES",2004,1,"YES","REACHWIDE",2004,1,"YES"," ","YES",2004,1,"IA","IOWA","PLYMOUTH","REGION__7","EAST","S",366,839.34,"47","WESTERN CORN BELT PLAINS","TPL","PLNLOW","9.2.3","9.2","TEMPERATE PRAIRIES","9","TEMPERATE PRAIRIES","10","1023","102300","10230002","FLOYD"," "," " 
"IAW02344-0123",2004,1,"WEST TARKIO","EASTPROB"," ",-95.311915,40.67347,-95.3121,40.67341,"GPS",3,"3rd",08/17/2004,"Y","Y","WADEABLE","SAMPLEABLE","WADEABLE","TS","T","IA",411.8420757,"YES"," ","YES",2004,1,"YES","REACHWIDE",2004,1,"YES"," ","YES",2004,1,"IA","IOWA","PAGE","REGION__7","EAST","T",301,181.53,"47","WESTERN CORN BELT PLAINS","TPL","PLNLOW","9.2.3","9.2","TEMPERATE PRAIRIES","9","TEMPERATE PRAIRIES","10","1024","102400","10240005","TARKIO-WOLF"," "," " 
"IAW02344-0125",2004,1,"MAD CREEK","EASTPROB"," ",-91.020575,41.477807,-91.02071,41.47773,"GPS",2,"2nd",07/13/2004,"Y","Y","WADEABLE","SAMPLEABLE","WADEABLE","TS","T","IA",4999.374535,"YES"," ","YES",2004,1,"YES","REACHWIDE",2004,1,"YES"," ","YES",2004,1,"IA","IOWA","MUSCATINE","REGION__7","EAST","S",189,9.63,"47","WESTERN CORN BELT PLAINS","TPL","PLNLOW","9.2.3","9.2","TEMPERATE PRAIRIES","9","TEMPERATE PRAIRIES","07","0708","070801","07080101","COPPERAS-DUCK"," "," " 
"IAW02344-0128",2004,1,"W. NISHNABOTNA","EASTPROB"," ",-95.0169,41.972987,-95.01714,41.97295,"GPS",3,"3rd",06/17/2004,"Y","Y","WADEABLE","SAMPLEABLE","WADEABLE","TS","T","IA",831.9209253,"YES"," ","YES",2004,1,"YES","REACHWIDE",2004,1,"YES"," ","YES",2004,1,"IA","IOWA","CARROLL","REGION__7","EAST","T",412,42.87,"47","WESTERN CORN BELT PLAINS","TPL","PLNLOW","9.2.3","9.2","TEMPERATE PRAIRIES","9","TEMPERATE PRAIRIES","10","1024","102400","10240002","WEST NISHNABOTNA"," "," " 
"IAW02344-0130",2004,1,"PERRY CREEK","EASTPROB"," ",-96.36816,42.65657,-96.36874,42.65653,"GPS",3,"3rd",06/22/2004,"Y","Y","WADEABLE","SAMPLEABLE","WADEABLE","TS","T","IA",411.8420757,"YES"," ","YES",2004,1,"YES","REACHWIDE",2004,1,"YES"," ","YES",2004,1,"IA","IOWA","PLYMOUTH","REGION__7","EAST","S",384,67.46,"47","WESTERN CORN BELT PLAINS","TPL","PLNLOW","9.2.3","9.2","TEMPERATE PRAIRIES","9","TEMPERATE PRAIRIES","10","1023","102300","10230001","BLACKBIRD-SOLDIER"," "," " 
"IAW02344-0132",2004,1,"OTTER CREEK","EASTPROB"," ",-93.836982,42.826805,-93.83714,42.82679,"GPS",3,"3rd",07/21/2004,"Y","Y","WADEABLE","SAMPLEABLE","WADEABLE","TS","T","IA",346.5118524,"YES"," ","YES",2004,1,"YES","REACHWIDE",2004,1,"YES"," ","YES",2004,1,"IA","IOWA","WRIGHT","REGION__7","EAST","T",342,145.91,"47","WESTERN CORN BELT PLAINS","TPL","PLNLOW","9.2.3","9.2","TEMPERATE PRAIRIES","9","TEMPERATE PRAIRIES","07","0710","071000","07100005","BOONE"," "," " 
"IAW02344-0133",2004,1,"HEWITT CREEK","EASTPROB"," ",-91.563138,42.756847,-91.56329,42.75673,"GPS",3,"3rd",08/04/2004,"Y","Y","WADEABLE","SAMPLEABLE","WADEABLE","TS","T","IA",144.7919423,"YES"," ","YES",2004,1,"YES","REACHWIDE",2004,1,"YES"," ","YES",2004,1,"IA","IOWA","CLAYTON","REGION__7","EAST","T",272,22.2,"52","DRIFTLESS AREA","UMW","PLNLOW","8.1.5","8.1","MIXED WOOD PLAINS","8","MIXED WOOD PLAINS","07","0706","070600","07060004","TURKEY"," "," " 
"IAW02344-0134",2004,1,"SOAP CREEK","EASTPROB"," ",-92.495502,40.85884,-92.49563,40.8589,"GPS",4,"4th",08/12/2004,"Y","Y","WADEABLE","SAMPLEABLE","WADEABLE","TS","T","IA",1669.539802,"YES"," ","YES",2004,1,"YES","REACHWIDE",2004,1,"YES"," ","YES",2004,1,"IA","IOWA","DAVIS","REGION__7","EAST","T",213,366.28,"40","CENTRAL IRREGULAR PLAINS","TPL","PLNLOW","9.2.4","9.2","TEMPERATE PRAIRIES","9","TEMPERATE PRAIRIES","07","0710","071000","07100009","LOWER DES MOINES"," "," " 
"IAW02344-0135",2004,1,"WILLOW CREEK","EASTPROB"," ",-93.30084,43.135349,-93.30099,43.13541,"GPS",2,"2nd",07/22/2004,"Y","Y","WADEABLE","SAMPLEABLE","WADEABLE","TS","T","IA",526.6293965,"YES"," ","YES",2004,1,"YES","REACHWIDE",2004,1,"YES"," ","YES",2004,1,"IA","IOWA","CERRO GORDO","REGION__7","EAST","S",354,138.71,"47","WESTERN CORN BELT PLAINS","TPL","PLNLOW","9.2.3","9.2","TEMPERATE PRAIRIES","9","TEMPERATE PRAIRIES","07","0708","070802","07080203","WINNEBAGO"," "," " 
"IAW02344-0139",2004,1,"QUARTER SECTION RUN","EASTPROB"," ",-92.355718,42.767949,-92.35588,42.76815,"GPS",2,"2nd",09/23/2004,"Y","Y","WADEABLE","SAMPLEABLE","WADEABLE","TS","T","IA",1450.089545,"YES"," ","YES",2004,1,"YES","REACHWIDE",2004,1,"YES"," ","YES",2004,1,"IA","IOWA","BREMER","REGION__7","EAST","S",301,32.64,"47","WESTERN CORN BELT PLAINS","TPL","PLNLOW","9.2.3","9.2","TEMPERATE PRAIRIES","9","TEMPERATE PRAIRIES","07","0708","070802","07080201","UPPER CEDAR"," "," " 
"IAW02344-0232",2004,1,"LITTLE WOLF CREEK","EASTPROB"," ",-92.742188,42.218529,-92.74226,42.21847,"GPS",2,"2nd",06/15/2004,"Y","Y","WADEABLE","SAMPLEABLE","WADEABLE","TS","T","IA",1450.089545,"YES"," ","YES",2004,1,"YES","REACHWIDE",2004,1,"YES"," ","YES",2004,1,"IA","IOWA","TAMA","REGION__7","EAST","T",293,54.3,"47","WESTERN CORN BELT PLAINS","TPL","PLNLOW","9.2.3","9.2","TEMPERATE PRAIRIES","9","TEMPERATE PRAIRIES","07","0708","070802","07080205","MIDDLE CEDAR"," "," " 
"IAW02344-0250",2004,1,"NORTH BRACH LIZARD CREEK","EASTPROB"," ",-94.735492,42.868822,-94.7358,42.86879,"GPS",2,"2nd",06/24/2004,"Y","Y","WADEABLE","SAMPLEABLE","WADEABLE","TS","T","IA",1063.791335,"YES"," ","YES",2004,1,"YES","REACHWIDE",2004,1,"YES"," ","YES",2004,1,"IA","IOWA","POCAHONTAS","REGION__7","EAST","T",373,135.87,"47","WESTERN CORN BELT PLAINS","TPL","PLNLOW","9.2.3","9.2","TEMPERATE PRAIRIES","9","TEMPERATE PRAIRIES","07","0710","071000","07100004","MIDDLE DES MOINES"," "," " 
"IAW02344-0253",2004,1,"YELLOW RIVER","EASTPROB"," ",-91.608278,43.138545,-91.6084,43.1385,"GPS",4,"4th",08/10/2004,"Y","Y","WADEABLE","SAMPLEABLE","WADEABLE","TS","T","IA",144.7919423,"YES"," ","YES",2004,1,"YES","REACHWIDE",2004,1,"YES"," ","YES",2004,1,"IA","IOWA","ALLAMAKEE","REGION__7","EAST","T",306,92.12,"52","DRIFTLESS AREA","UMW","PLNLOW","8.1.5","8.1","MIXED WOOD PLAINS","8","MIXED WOOD PLAINS","07","0706","070600","07060001","COON-YELLOW"," "," " 
"IAW02344-0261",2004,1,"MIDDLE FORK LITTLE MAQUOKETA CREEK","EASTPROB"," ",-90.94016,42.560807,-90.9403,42.56082,"GPS",3,"3rd",08/02/2004,"Y","Y","WADEABLE","SAMPLEABLE","WADEABLE","TS","T","IA",144.7919423,"YES"," ","YES",2004,1,"YES","REACHWIDE",2004,1,"YES"," ","YES",2004,1,"IA","IOWA","DUBUQUE","REGION__7","EAST","T",259,34.81,"52","DRIFTLESS AREA","UMW","PLNLOW","8.1.5","8.1","MIXED WOOD PLAINS","8","MIXED WOOD PLAINS","07","0706","070600","07060003","GRANT-LITTLE MAQUOKETA"," "," " 
"IAW02344-IA01",2004,1,"WILLOW CREEK","EASTHAND"," ",-93.353791,43.276736,-93.35403,43.27666,"GPS", ," ",10/08/2004,"N","Y","WADEABLE","SAMPLEABLE","WADEABLE","TS","T"," ",0,"NO"," ","NO",2004,1,"YES","REACHWIDE",2004,1,"NO"," ","NO",2004,1,"IA","IOWA","WORTH","REGION__7","EAST","S",356,54.57,"47","WESTERN CORN BELT PLAINS","TPL","PLNLOW","9.2.3","9.2","TEMPERATE PRAIRIES","9","TEMPERATE PRAIRIES","07","0708","070802","07080203","WINNEBAGO"," "," " 
"IAW02344-IA02",2004,1,"LIME CREEK","EASTHAND"," ",-91.981954,42.329157,-91.98228,42.32907,"GPS", ," ",09/17/2004,"N","Y","WADEABLE","SAMPLEABLE","WADEABLE","TS","T"," ",0,"NO"," ","NO",2004,1,"YES","REACHWIDE",2004,1,"NO"," ","NO",2004,1,"IA","IOWA","BUCHANAN","REGION__7","EAST","S",256,84.87,"47","WESTERN CORN BELT PLAINS","TPL","PLNLOW","9.2.3","9.2","TEMPERATE PRAIRIES","9","TEMPERATE PRAIRIES","07","0708","070802","07080205","MIDDLE CEDAR"," "," " 
"IAW02344-IA04",2004,1,"BAILEY CREEK","EASTHAND"," ",-93.262418,42.902773,-93.26436,42.90377,"GPS", ," ",11/10/2004,"N","Y","WADEABLE","SAMPLEABLE","WADEABLE","TS","T"," ",0,"NO"," ","NO",2004,1,"YES","REACHWIDE",2004,1,"NO"," ","NO",2004,1,"IA","IOWA","FRANKLIN","REGION__7","EAST","S",335,201.93,"47","WESTERN CORN BELT PLAINS","TPL","PLNLOW","9.2.3","9.2","TEMPERATE PRAIRIES","9","TEMPERATE PRAIRIES","07","0708","070802","07080204","WEST FORK CEDAR"," "," " 
"IAW02344-IA07",2004,1,"FRENCH CREEK","EASTHAND"," ",-91.397228,43.377213,-91.39749,43.37712,"GPS", ," ",09/16/2004,"N","Y","WADEABLE","SAMPLEABLE","WADEABLE","TS","T"," ",0,"NO"," ","NO",2004,1,"YES","REACHWIDE",2004,1,"NO"," ","NO",2004,1,"IA","IOWA","ALLAMAKEE","REGION__7","EAST","S",237,25.85,"52","DRIFTLESS AREA","UMW","PLNLOW","8.1.5","8.1","MIXED WOOD PLAINS","8","MIXED WOOD PLAINS","07","0706","070600","07060002","UPPER IOWA"," "," " 
"ID0001",2004,1,"MOOSE CREEK","WESTHAND"," ",-111.04657,43.56344,-111.04657,43.56344,"GPS",2,"2nd",08/31/2004,"N","Y","WADEABLE","SAMPLEABLE","WADEABLE","TS","T"," ",0,"NO","YES","NO",2004,1,"NA"," ",2004,1,"NO","YES","NO",2004,1,"ID","IDAHO","TETON","REGION_10","WEST","S",2021,55.0727,"17","MIDDLE ROCKIES","WMT","WMTNS","6.2.10","6.2","WESTERN CORDILLERA","6","WESTERN CORDILLERA","17","1704","170402","17040204","TETON"," "," " 
"MAD-0003",2004,1,"WEST FORK BEAVER CREEK","WESTHAND"," ",-111.3725,44.9052,-111.3725,44.9052,"GPS",3,"3rd",08/13/2004,"N","Y","WADEABLE","SAMPLEABLE","WADEABLE","TS","T"," ",0,"NO","YES","NO",2004,1,"NA"," ",2004,1,"NO","YES","NO",2004,1,"MT","MONTANA","MADISON","REGION__8","WEST","R",2090,24.789,"17","MIDDLE ROCKIES","WMT","WMTNS","6.2.10","6.2","WESTERN CORDILLERA","6","WESTERN CORDILLERA","10","1002","100200","10020007","MADISON"," "," " 
"MAD-0004",2004,1,"NO MAN CREEK","WESTHAND"," ",-111.4977,45.11524,-111.4977,45.11524,"GPS",2,"2nd",08/14/2004,"N","Y","WADEABLE","SAMPLEABLE","WADEABLE","TS","T"," ",0,"NO","YES","NO",2004,1,"NA"," ",2004,1,"NO","YES","NO",2004,1,"MT","MONTANA","MADISON","REGION__8","WEST","S",2030,21.9919,"17","MIDDLE ROCKIES","WMT","WMTNS","6.2.10","6.2","WESTERN CORDILLERA","6","WESTERN CORDILLERA","10","1002","100200","10020007","MADISON"," "," " 
"MAD-0005",2004,1,"CABIN CREEK","WESTHAND"," ",-111.33925,44.87609,-111.33925,44.87609,"GPS",4,"4th",08/12/2004,"N","Y","WADEABLE","SAMPLEABLE","WADEABLE","TS","T"," ",0,"NO","YES","NO",2004,1,"NA"," ",2004,1,"NO","YES","NO",2004,1,"MT","MONTANA","GALLATIN","REGION__8","WEST","T",2019,78.2548,"17","MIDDLE ROCKIES","WMT","WMTNS","6.2.10","6.2","WESTERN CORDILLERA","6","WESTERN CORDILLERA","10","1002","100200","10020007","MADISON"," "," " 
"MT222052",2004,1,"WHITETAIL CREEK","WESTHAND"," ",-111.48534,46.99503,-111.48534,46.99503,"GPS",2,"2nd",07/28/2004,"N","Y","WADEABLE","SAMPLEABLE","WADEABLE","TS","T"," ",0,"NO","YES","NO",2004,1,"NA"," ",2004,1,"NO","YES","NO",2004,1,"MT","MONTANA","MEAGHER","REGION__8","WEST","R",1453,16.6039,"43","NORTHWESTERN GREAT PLAINS","NPL","PLNLOW","9.3.2","9.3","WEST-CENTRAL SEMI-ARID PRAIRIES","9","WEST-CENTRAL SEMI-ARID PRAIRIES","10","1003","100301","10030103","SMITH"," "," " 
"MT224909",2004,1,"TROUT CREEK","WESTHAND"," ",-111.41024,46.98793,-111.41024,46.98793,"GPS",3,"3rd",07/30/2004,"N","Y","WADEABLE","SAMPLEABLE","WADEABLE","TS","T"," ",0,"NO","YES","NO",2004,1,"NA"," ",2004,1,"NO","YES","NO",2004,1,"MT","MONTANA","MEAGHER","REGION__8","WEST","R",1476,18.5862,"43","NORTHWESTERN GREAT PLAINS","NPL","PLNLOW","9.3.2","9.3","WEST-CENTRAL SEMI-ARID PRAIRIES","9","WEST-CENTRAL SEMI-ARID PRAIRIES","10","1003","100301","10030103","SMITH"," "," " 
"MT335341",2004,1,"SOUTH FORK MUSSELL SHELL","WESTHAND"," ",-110.35462,46.45397,-110.35462,46.45397,"GPS",1," ",07/31/2004,"N","Y","WADEABLE","SAMPLEABLE","WADEABLE","TS","T"," ",0,"NO","YES","NO",2004,1,"NA"," ",2004,1,"NO","YES","NO",2004,1,"MT","MONTANA","MEAGHER","REGION__8","WEST","R",1481,703.6023,"43","NORTHWESTERN GREAT PLAINS","NPL","PLNLOW","9.3.2","9.3","WEST-CENTRAL SEMI-ARID PRAIRIES","9","WEST-CENTRAL SEMI-ARID PRAIRIES","10","1004","100402","10040201","UPPER MUSSELSHELL"," "," " 
"MT405656",2004,1,"LITTLE PORCUPINE CREEK","WESTHAND"," ",-106.66309,46.49316,-106.66309,46.49316,"GPS",4,"4th",08/08/2004,"N","Y","WADEABLE","SAMPLEABLE","WADEABLE","TS","T"," ",0,"NO","YES","NO",2004,1,"NA"," ",2004,1,"NO","YES","NO",2004,1,"MT","MONTANA","ROSEBUD","REGION__8","WEST","T",797,982.516,"43","NORTHWESTERN GREAT PLAINS","NPL","PLNLOW","9.3.3","9.3","WEST-CENTRAL SEMI-ARID PRAIRIES","9","WEST-CENTRAL SEMI-ARID PRAIRIES","10","1010","101000","10100001","LOWER YELLOWSTONE-SUNDAY"," "," " 
"MT420908",2004,1,"O'FALLON CREEK","WESTHAND"," ",-104.84822,46.55535,-104.84822,46.55535,"GPS",5,"5th +",07/09/2004,"N","Y","WADEABLE","SAMPLEABLE","WADEABLE","TS","T"," ",0,"NO","YES","NO",2004,1,"NA"," ",2004,1,"NO","YES","NO",2004,1,"MT","MONTANA","CUSTER","REGION__8","WEST","R",754,2741.436,"43","NORTHWESTERN GREAT PLAINS","NPL","PLNLOW","9.3.3","9.3","WEST-CENTRAL SEMI-ARID PRAIRIES","9","WEST-CENTRAL SEMI-ARID PRAIRIES","10","1010","101000","10100005","O'FALLON"," "," " 
"MT634738",2004,1,"MUDDY CREEK","WESTHAND"," ",-107.96215,45.43298,-107.96215,45.43298,"GPS",3,"3rd",07/07/2004,"N","Y","WADEABLE","SAMPLEABLE","WADEABLE","TS","T"," ",0,"NO","YES","NO",2004,1,"NA"," ",2004,1,"NO","YES","NO",2004,1,"MT","MONTANA","BIG HORN","REGION__8","WEST","S",1062,66.2153,"43","NORTHWESTERN GREAT PLAINS","NPL","PLNLOW","9.3.2","9.3","WEST-CENTRAL SEMI-ARID PRAIRIES","9","WEST-CENTRAL SEMI-ARID PRAIRIES","10","1008","100800","10080015","LOWER BIGHORN"," "," " 
"ND233668",2004,1,"MOCCASIN CREEK NEAR MANDAREE","WESTHAND"," ",-102.60972,47.61804,-102.60972,47.61804,"GPS",3,"3rd",07/09/2004,"N","Y","WADEABLE","SAMPLEABLE","WADEABLE","TS","T"," ",0,"NO","YES","NO",2004,1,"NA"," ",2004,1,"NO","YES","NO",2004,1,"ND","NORTH DAKOTA","DUNN","REGION__8","WEST","S",641,57.0417,"43","NORTHWESTERN GREAT PLAINS","NPL","PLNLOW","9.3.3","9.3","WEST-CENTRAL SEMI-ARID PRAIRIES","9","WEST-CENTRAL SEMI-ARID PRAIRIES","10","1011","101102","10110205","LOWER LITTLE MISSOURI"," "," " 
"ND293368",2004,1,"BEAVER CREEK BELOW TROTTERS, ND","WESTHAND"," ",-103.86498,47.20434,-103.86498,47.20434,"GPS",5,"5th +",07/08/2004,"N","Y","WADEABLE","SAMPLEABLE","WADEABLE","TS","T"," ",0,"NO","YES","NO",2004,1,"NA"," ",2004,1,"NO","YES","NO",2004,1,"ND","NORTH DAKOTA","GOLDEN VALLEY","REGION__8","WEST","S",701,1699.0806,"43","NORTHWESTERN GREAT PLAINS","NPL","PLNLOW","9.3.3","9.3","WEST-CENTRAL SEMI-ARID PRAIRIES","9","WEST-CENTRAL SEMI-ARID PRAIRIES","10","1011","101102","10110204","BEAVER"," "," " 
"ND552901",2004,1,"PORCUPINE CREEK","WESTHAND"," ",-100.75213,46.19369,-100.75213,46.19369,"GPS",5,"5th +",07/06/2004,"N","Y","WADEABLE","SAMPLEABLE","WADEABLE","TS","T"," ",0,"NO","YES","NO",2004,1,"NA"," ",2004,1,"NO","YES","NO",2004,1,"ND","NORTH DAKOTA","SIOUX","REGION__8","WEST","S",500,568.8703,"43","NORTHWESTERN GREAT PLAINS","NPL","PLNLOW","9.3.3","9.3","WEST-CENTRAL SEMI-ARID PRAIRIES","9","WEST-CENTRAL SEMI-ARID PRAIRIES","10","1013","101301","10130102","UPPER LAKE OAHE"," "," " 
"ND590072",2004,1,"ONEMILE CREEK","WESTHAND"," ",-100.67056,46.0661,-100.67056,46.0661,"GPS",3,"3rd",07/06/2004,"N","Y","WADEABLE","SAMPLEABLE","WADEABLE","TS","T"," ",0,"NO","YES","NO",2004,1,"NA"," ",2004,1,"NO","YES","NO",2004,1,"ND","NORTH DAKOTA","SIOUX","REGION__8","WEST","T",506,50.0549,"43","NORTHWESTERN GREAT PLAINS","NPL","PLNLOW","9.3.3","9.3","WEST-CENTRAL SEMI-ARID PRAIRIES","9","WEST-CENTRAL SEMI-ARID PRAIRIES","10","1013","101301","10130102","UPPER LAKE OAHE"," "," " 
"NEWS04-0101",2004,1,"AEGAN BROOK","EASTPROB"," ",-69.014956,47.11112,-69.01563,47.11107,"GPS",0,"NO DATA",10/10/2004,"Y","Y","WADEABLE","SAMPLEABLE","WADEABLE","TS","T","NEWS",64.24351712,"YES"," ","YES",2004,1,"YES","REACHWIDE",2004,1,"YES"," ","YES",2004,1,"ME","MAINE","AROOSTOOK","REGION__1","EAST","R",243,10.7,"58","NORTHEASTERN HIGHLANDS","NAP","EHIGH","5.3.1","5.3","ATLANTIC HIGHLANDS","5","ATLANTIC HIGHLANDS","01","0101","010100","01010001","UPPER ST JOHN"," "," " 
"NEWS04-0108",2004,1,"PETITE BROOK","EASTPROB"," ",-68.90787,47.16987,-68.90835,47.1695,"GPS",0,"NO DATA",10/11/2004,"Y","Y","WADEABLE","SAMPLEABLE","WADEABLE","TS","T","NEWS",21.06765026,"YES"," ","YES",2004,1,"YES","REACHWIDE",2004,1,"YES"," ","YES",2004,1,"ME","MAINE","AROOSTOOK","REGION__1","EAST","S",171,24.82,"82","LAURENTIAN PLAINS AND HILLS","NAP","EHIGH","5.3.1","5.3","ATLANTIC HIGHLANDS","5","ATLANTIC HIGHLANDS","01","0101","010100","01010001","UPPER ST JOHN"," "," " 
"NEWS04-0203",2004,1,"HALFWAY BROOK","EASTPROB"," ",-68.02482,46.9965,-68.02482,46.9965,"GPS",0,"NO DATA",10/15/2004,"Y","Y","WADEABLE","SAMPLEABLE","WADEABLE","TS","T","NEWS",131.570457,"YES"," ","YES",2004,1,"YES","REACHWIDE",2004,1,"YES"," ","YES",2004,1,"ME","MAINE","AROOSTOOK","REGION__1","EAST","S",174,62.4,"82","LAURENTIAN PLAINS AND HILLS","NAP","EHIGH","5.3.1","5.3","ATLANTIC HIGHLANDS","5","ATLANTIC HIGHLANDS","01","0101","010100","01010004","AROOSTOOK"," "," " 
"NEWS04-0305",2004,1,"DEPOT STREAM","EASTPROB"," ",-69.717,46.8218,-69.716976,46.821801,"GPS",0,"NO DATA",10/13/2004,"Y","Y","WADEABLE","SAMPLEABLE","WADEABLE","TS","T","NEWS",24.69065317,"YES"," ","YES",2004,1,"YES","REACHWIDE",2004,1,"YES"," ","YES",2004,1,"ME","MAINE","AROOSTOOK","REGION__1","EAST","R",277,167.88,"58","NORTHEASTERN HIGHLANDS","NAP","EHIGH","5.3.1","5.3","ATLANTIC HIGHLANDS","5","ATLANTIC HIGHLANDS","01","0101","010100","01010001","UPPER ST JOHN"," "," " 
"NEWS04-0401",2004,1,"SNARE BROOK","EASTPROB"," ",-69.438582,46.435407,-69.43894,46.43523,"GPS",0,"NO DATA",10/14/2004,"Y","Y","WADEABLE","SAMPLEABLE","WADEABLE","TS","T","NEWS",335.788737,"YES"," ","YES",2004,1,"YES","REACHWIDE",2004,1,"YES"," ","YES",2004,1,"ME","MAINE","PISCATAQUIS","REGION__1","EAST","R",309,37.08,"58","NORTHEASTERN HIGHLANDS","NAP","EHIGH","5.3.1","5.3","ATLANTIC HIGHLANDS","5","ATLANTIC HIGHLANDS","01","0101","010100","01010002","ALLAGASH"," "," " 
"NEWS04-0502",2004,1,"R. DE CHUTE","EASTPROB"," ",-67.79674,46.63766,-67.79718,46.63771,"GPS",0,"NO DATA",10/18/2004,"Y","Y","WADEABLE","SAMPLEABLE","WADEABLE","TS","T","NEWS",136.707347,"YES"," ","YES",2004,1,"YES","REACHWIDE",2004,1,"YES"," ","YES",2004,1,"ME","MAINE","AROOSTOOK","REGION__1","EAST","S",152,28.34,"82","LAURENTIAN PLAINS AND HILLS","NAP","EHIGH","5.3.1","5.3","ATLANTIC HIGHLANDS","5","ATLANTIC HIGHLANDS","01","0101","010100","01010005","MEDUXNEKEAG"," "," " 
"NEWS04-0602",2004,1,"CHURCH HILL CREEK","EASTPROB"," ",-70.099792,45.690392,-70.099792,45.690392,"GPS",0,"NO DATA",10/08/2004,"Y","Y","WADEABLE","SAMPLEABLE","WADEABLE","TS","T","NEWS",5.685137107,"YES"," ","YES",2004,1,"YES","REACHWIDE",2004,1,"YES"," ","YES",2004,1,"ME","MAINE","SOMERSET","REGION__1","EAST","R",409,39.22,"58","NORTHEASTERN HIGHLANDS","NAP","EHIGH","5.3.1","5.3","ATLANTIC HIGHLANDS","5","ATLANTIC HIGHLANDS","01","0103","010300","01030001","UPPER KENNEBEC"," "," " 
"NEWS04-0703",2004,1,"LOGAN BROOK","EASTPROB"," ",-69.848482,45.945036,-69.8465,45.94505,"GPS",0,"NO DATA",10/09/2004,"Y","Y","WADEABLE","SAMPLEABLE","WADEABLE","TS","T","NEWS",467.1568126,"YES"," ","YES",2004,1,"YES","REACHWIDE",2004,1,"YES"," ","YES",2004,1,"ME","MAINE","SOMERSET","REGION__1","EAST","R",340,10.71,"58","NORTHEASTERN HIGHLANDS","NAP","EHIGH","5.3.1","5.3","ATLANTIC HIGHLANDS","5","ATLANTIC HIGHLANDS","01","0102","010200","01020001","WEST BRANCH PENOBSCOT"," "," " 
"NEWS04-0806",2004,1,"GREENLEAF BROOK","EASTPROB"," ",-67.8623,45.8845,-67.86299,45.88437,"GPS",0,"NO DATA",10/19/2004,"Y","Y","WADEABLE","SAMPLEABLE","WADEABLE","TS","T","NEWS",593.9102541,"YES"," ","YES",2004,1,"YES","REACHWIDE",2004,1,"YES"," ","YES",2004,1,"ME","MAINE","AROOSTOOK","REGION__1","EAST","T",158,4.48,"82","LAURENTIAN PLAINS AND HILLS","NAP","EHIGH","5.3.1","5.3","ATLANTIC HIGHLANDS","5","ATLANTIC HIGHLANDS","01","0105","010500","01050001","ST CROIX"," "," " 
"NEWS04-0905",2004,1,"BLACK CREEK","EASTPROB","Y",-72.8594,44.7831,-72.85933,44.78303,"GPS",0,"NO DATA",08/18/2004,"Y","Y","WADEABLE","SAMPLEABLE","WADEABLE","TS","T","NEWS",19.47848875,"YES"," ","YES",2004,1,"YES","REACHWIDE",2004,1,"YES"," ","YES",2004,1,"VT","VERMONT","FRANKLIN","REGION__1","EAST","T",124,92.72,"58","NORTHEASTERN HIGHLANDS","NAP","EHIGH","5.3.1","5.3","ATLANTIC HIGHLANDS","5","ATLANTIC HIGHLANDS","02","0201","020100","02010007","MISSISQUOI"," "," " 
"NEWS04-0905",2004,2,"BLACK CREEK","EASTPROB","Y",-72.85946,44.78309,-72.85946,44.78309,"GPS",0,"NO DATA",10/06/2004,"N","Y","WADEABLE","SAMPLEABLE","WADEABLE","TS","T","NEWS", ,"NO"," ","NO",2004,1,"YES","REACHWIDE",2004,1,"NO"," ","NO",2004,1,"VT","VERMONT","FRANKLIN","REGION__1","EAST","T",124,92.72,"58","NORTHEASTERN HIGHLANDS","NAP","EHIGH","5.3.1","5.3","ATLANTIC HIGHLANDS","5","ATLANTIC HIGHLANDS","02","0201","020100","02010007","MISSISQUOI"," "," " 
"NEWS04-1001",2004,1,"WILLOUGHBY RIVER","EASTPROB"," ",-72.1368,44.8061,-72.13679,44.80697,"GPS",0,"NO DATA",08/20/2004,"Y","Y","WADEABLE","SAMPLEABLE","WADEABLE","TS","T","NEWS",16.57744613,"YES"," ","YES",2004,1,"YES","REACHWIDE",2004,1,"YES"," ","YES",2004,1,"VT","VERMONT","ORLEANS","REGION__1","EAST","R",326,82.39,"58","NORTHEASTERN HIGHLANDS","NAP","EHIGH","5.3.1","5.3","ATLANTIC HIGHLANDS","5","ATLANTIC HIGHLANDS","01","0111","011100","01110000","ST FRANCOIS"," "," " 
"NEWS04-1105",2004,1,"HORSESHOE STREAM","EASTPROB"," ",-70.75558,45.37608,-70.75558,45.37603,"GPS",0,"NO DATA",09/15/2004,"Y","Y","WADEABLE","SAMPLEABLE","WADEABLE","TS","T","NEWS",18.30048364,"YES"," ","YES",2004,1,"YES","REACHWIDE",2004,1,"YES"," ","YES",2004,1,"ME","MAINE","FRANKLIN","REGION__1","EAST","R",407,47.93,"58","NORTHEASTERN HIGHLANDS","NAP","EHIGH","5.3.1","5.3","ATLANTIC HIGHLANDS","5","ATLANTIC HIGHLANDS","01","0103","010300","01030002","DEAD"," "," " 
"NEWS04-1106",2004,1,"CEDAR STREAM","EASTPROB"," ",-71.28039,45.02828,-71.28072,45.02819,"GPS",0,"NO DATA",09/12/2004,"Y","Y","WADEABLE","SAMPLEABLE","WADEABLE","TS","T","NEWS",13.36611706,"YES"," ","YES",2004,1,"YES","REACHWIDE",2004,1,"YES"," ","YES",2004,1,"NH","NEW HAMPSHIRE","COOS","REGION__1","EAST","B",432,33.02,"58","NORTHEASTERN HIGHLANDS","NAP","EHIGH","5.3.1","5.3","ATLANTIC HIGHLANDS","5","ATLANTIC HIGHLANDS","01","0108","010801","01080101","UPPER CONNECTICUT"," "," " 
"NEWS04-1202",2004,1,"CARRYING PLACE STREAM","EASTPROB"," ",-70.01658,45.1809,-70.01733,45.18094,"GPS",0,"NO DATA",09/17/2004,"Y","Y","WADEABLE","SAMPLEABLE","WADEABLE","TS","T","NEWS",143.4776326,"YES"," ","YES",2004,1,"YES","REACHWIDE",2004,1,"YES"," ","YES",2004,1,"ME","MAINE","SOMERSET","REGION__1","EAST","R",250,27.07,"58","NORTHEASTERN HIGHLANDS","NAP","EHIGH","5.3.1","5.3","ATLANTIC HIGHLANDS","5","ATLANTIC HIGHLANDS","01","0103","010300","01030003","LOWER KENNEBEC"," "," " 
"NEWS04-1302",2004,1,"SCHOODIC BROOK","EASTPROB"," ",-68.8517,45.29801,-68.85248,45.29803,"GPS",0,"NO DATA",09/19/2004,"Y","Y","WADEABLE","SAMPLEABLE","WADEABLE","TS","T","NEWS",105.7904713,"YES"," ","YES",2004,1,"YES","REACHWIDE",2004,1,"YES"," ","YES",2004,1,"ME","MAINE","PISCATAQUIS","REGION__1","EAST","R",95,87.9,"82","LAURENTIAN PLAINS AND HILLS","NAP","EHIGH","5.3.1","5.3","ATLANTIC HIGHLANDS","5","ATLANTIC HIGHLANDS","01","0102","010200","01020004","PISCATAQUIS"," "," " 
"NEWS04-1303",2004,1,"KENDUSKEAG RIVER","EASTPROB"," ",-68.99748,44.96026,-68.99755,44.96006,"GPS",0,"NO DATA",09/22/2004,"Y","Y","WADEABLE","SAMPLEABLE","WADEABLE","TS","T","NEWS",317.1051516,"YES"," ","YES",2004,1,"YES","REACHWIDE",2004,1,"YES"," ","YES",2004,1,"ME","MAINE","PENOBSCOT","REGION__1","EAST","S",46,245.13,"82","LAURENTIAN PLAINS AND HILLS","NAP","EHIGH","8.1.7","8.1","MIXED WOOD PLAINS","8","MIXED WOOD PLAINS","01","0102","010200","01020005","LOWER PENOBSCOT"," "," " 
"NEWS04-1410",2004,1,"SPRUCE BROOK","EASTPROB"," ",-68.09774,45.45344,-68.09784,45.45353,"GPS",0,"NO DATA",09/21/2004,"Y","Y","WADEABLE","SAMPLEABLE","WADEABLE","TS","T","NEWS",421.3410547,"YES"," ","YES",2004,1,"YES","REACHWIDE",2004,1,"YES"," ","YES",2004,1,"ME","MAINE","PENOBSCOT","REGION__1","EAST","R",134,18.48,"82","LAURENTIAN PLAINS AND HILLS","NAP","EHIGH","5.3.1","5.3","ATLANTIC HIGHLANDS","5","ATLANTIC HIGHLANDS","01","0102","010200","01020003","MATTAWAMKEAG"," "," " 
"NEWS04-1702",2004,1,"WINOOSKI RIVER","EASTPROB"," ",-72.4543,44.2811,-72.454632,44.281084,"GPS",0,"NO DATA",08/17/2004,"Y","Y","WADEABLE","SAMPLEABLE","WADEABLE","TS","T","NEWS",368.1833813,"YES"," ","YES",2004,1,"YES","REACHWIDE",2004,1,"YES"," ","YES",2004,1,"VT","VERMONT","WASHINGTON","REGION__1","EAST","T",204,413.19,"58","NORTHEASTERN HIGHLANDS","NAP","EHIGH","5.3.1","5.3","ATLANTIC HIGHLANDS","5","ATLANTIC HIGHLANDS","02","0201","020100","02010003","WINOOSKI"," "," " 
"NEWS04-1801",2004,1,"MILLER RUN","EASTPROB","Y",-72.0714,44.5808,-72.071368,44.580823,"GPS",0,"NO DATA",08/19/2004,"Y","Y","WADEABLE","SAMPLEABLE","WADEABLE","TS","T","NEWS",143.6389885,"YES"," ","YES",2004,1,"YES","REACHWIDE",2004,1,"YES"," ","YES",2004,1,"VT","VERMONT","CALEDONIA","REGION__1","EAST","S",227,78.54,"58","NORTHEASTERN HIGHLANDS","NAP","EHIGH","5.3.1","5.3","ATLANTIC HIGHLANDS","5","ATLANTIC HIGHLANDS","01","0108","010801","01080102","PASSUMPSIC"," "," " 
"NEWS04-1801",2004,2,"MILLER RUN","EASTPROB","Y",-72.07137,44.58082,-72.07143,44.5808,"GPS",0,"NO DATA",09/11/2004,"N","Y","WADEABLE","SAMPLEABLE","WADEABLE","TS","T","NEWS", ,"NO"," ","NO",2004,1,"YES","REACHWIDE",2004,1,"NO"," ","NO",2004,1,"VT","VERMONT","CALEDONIA","REGION__1","EAST","S",227,78.54,"58","NORTHEASTERN HIGHLANDS","NAP","EHIGH","5.3.1","5.3","ATLANTIC HIGHLANDS","5","ATLANTIC HIGHLANDS","01","0108","010801","01080102","PASSUMPSIC"," "," " 
"NEWS04-1901",2004,1,"HARDY STREAM","EASTPROB"," ",-70.38491,44.89172,-70.38459,44.89176,"GPS",0,"NO DATA",09/16/2004,"Y","Y","WADEABLE","SAMPLEABLE","WADEABLE","TS","T","NEWS",201.4367029,"YES"," ","YES",2004,1,"YES","REACHWIDE",2004,1,"YES"," ","YES",2004,1,"ME","MAINE","FRANKLIN","REGION__1","EAST","S",368,14.53,"58","NORTHEASTERN HIGHLANDS","NAP","EHIGH","5.3.1","5.3","ATLANTIC HIGHLANDS","5","ATLANTIC HIGHLANDS","01","0103","010300","01030003","LOWER KENNEBEC"," "," " 
"NEWS04-1903",2004,1,"BEAR RIVER","EASTPROB"," ",-70.8574,44.5631,-70.85989,44.56642,"GPS",0,"NO DATA",09/14/2004,"Y","Y","WADEABLE","SAMPLEABLE","WADEABLE","TS","T","NEWS",159.8694168,"YES"," ","YES",2004,1,"YES","REACHWIDE",2004,1,"YES"," ","YES",2004,1,"ME","MAINE","OXFORD","REGION__1","EAST","S",248,47.31,"58","NORTHEASTERN HIGHLANDS","NAP","EHIGH","5.3.1","5.3","ATLANTIC HIGHLANDS","5","ATLANTIC HIGHLANDS","01","0104","010400","01040002","LOWER ANDROSCOGGIN"," "," " 
"NEWS04-2002",2004,1,"HIGGINS BROOK","EASTPROB"," ",-69.55696,44.98335,-69.55741,44.98319,"GPS",0,"NO DATA",09/18/2004,"Y","Y","WADEABLE","SAMPLEABLE","WADEABLE","TS","T","NEWS",860.1860688,"YES"," ","YES",2004,1,"YES","REACHWIDE",2004,1,"YES"," ","YES",2004,1,"ME","MAINE","SOMERSET","REGION__1","EAST","R",97,114.85,"82","LAURENTIAN PLAINS AND HILLS","NAP","EHIGH","5.3.1","5.3","ATLANTIC HIGHLANDS","5","ATLANTIC HIGHLANDS","01","0103","010300","01030003","LOWER KENNEBEC"," "," " 
"NEWS04-2101",2004,1,"JELLISON MEADOW BROOK","EASTPROB"," ",-68.39244,44.77489,-68.39273,44.77462,"GPS",0,"NO DATA",09/20/2004,"Y","Y","WADEABLE","SAMPLEABLE","WADEABLE","TS","T","NEWS",128.6649516,"YES"," ","YES",2004,1,"YES","REACHWIDE",2004,1,"YES"," ","YES",2004,1,"ME","MAINE","HANCOCK","REGION__1","EAST","R",36,28.58,"82","LAURENTIAN PLAINS AND HILLS","NAP","EHIGH","5.3.1","5.3","ATLANTIC HIGHLANDS","5","ATLANTIC HIGHLANDS","01","0105","010500","01050002","MAINE COASTAL"," "," " 
"NEWS04-2301",2004,1,"THIRD BRANCH WHITE RIVER","EASTPROB"," ",-72.7115,43.946,-72.71165,43.94585,"GPS",0,"NO DATA",08/16/2004,"Y","Y","PARTIAL WADEABLE","SAMPLEABLE","PARBYWADE","TS","T","NEWS",104.8823498,"YES"," ","YES",2004,1,"YES","REACHWIDE",2004,1,"YES"," ","YES",2004,1,"VT","VERMONT","ORANGE","REGION__1","EAST","S",220,111.36,"58","NORTHEASTERN HIGHLANDS","NAP","EHIGH","5.3.1","5.3","ATLANTIC HIGHLANDS","5","ATLANTIC HIGHLANDS","01","0108","010801","01080105","WHITE"," "," " 
"NEWS04-2302",2004,1,"HUNTINGTON RIVER","EASTPROB"," ",-72.965909,44.214156,-72.9664,44.21424,"GPS",0,"NO DATA",10/07/2004,"Y","Y","WADEABLE","SAMPLEABLE","WADEABLE","TS","T","NEWS",68.63629407,"YES"," ","YES",2004,1,"YES","REACHWIDE",2004,1,"YES"," ","YES",2004,1,"VT","VERMONT","ADDISON","REGION__1","EAST","S",353,11.81,"58","NORTHEASTERN HIGHLANDS","NAP","EHIGH","5.3.1","5.3","ATLANTIC HIGHLANDS","5","ATLANTIC HIGHLANDS","02","0201","020100","02010003","WINOOSKI"," "," " 
"NEWS04-2401",2004,1,"INDIAN RIVER","EASTPROB","Y",-71.9818,43.6961,-71.98191,43.69616,"GPS",0,"NO DATA",08/14/2004,"Y","Y","WADEABLE","SAMPLEABLE","WADEABLE","TS","T","NEWS",163.7298326,"YES"," ","YES",2004,1,"YES","REACHWIDE",2004,1,"YES"," ","YES",2004,1,"NH","NEW HAMPSHIRE","GRAFTON","REGION__1","EAST","S",329,25.46,"58","NORTHEASTERN HIGHLANDS","NAP","EHIGH","5.3.1","5.3","ATLANTIC HIGHLANDS","5","ATLANTIC HIGHLANDS","01","0108","010801","01080104","UPPER CONNECTICUT-MASCOMA"," "," " 
"NEWS04-2401",2004,2,"INDIAN RIVER","EASTPROB","Y",-71.981829,43.696105,-71.98193,43.69637,"GPS",0,"NO DATA",09/08/2004,"N","Y","WADEABLE","SAMPLEABLE","WADEABLE","TS","T","NEWS", ,"NO"," ","NO",2004,1,"YES","REACHWIDE",2004,1,"NO"," ","NO",2004,1,"NH","NEW HAMPSHIRE","GRAFTON","REGION__1","EAST","S",329,25.46,"58","NORTHEASTERN HIGHLANDS","NAP","EHIGH","5.3.1","5.3","ATLANTIC HIGHLANDS","5","ATLANTIC HIGHLANDS","01","0108","010801","01080104","UPPER CONNECTICUT-MASCOMA"," "," " 
"NEWS04-2502",2004,1,"BEECH RIVER","EASTPROB"," ",-71.1469,43.7479,-71.14673,43.7473,"GPS",0,"NO DATA",08/12/2004,"Y","Y","WADEABLE","SAMPLEABLE","WADEABLE","TS","T","NEWS",45.11942342,"YES"," ","YES",2004,1,"YES","REACHWIDE",2004,1,"YES"," ","YES",2004,1,"NH","NEW HAMPSHIRE","CARROLL","REGION__1","EAST","R",143,79.59,"58","NORTHEASTERN HIGHLANDS","NAP","EHIGH","5.3.1","5.3","ATLANTIC HIGHLANDS","5","ATLANTIC HIGHLANDS","01","0106","010600","01060002","SACO"," "," " 
"NEWS04-2805",2004,1,"METTAWEE RIVER","EASTPROB"," ",-73.0884,43.2611,-73.08854,43.26064,"GPS",0,"NO DATA",08/15/2004,"Y","Y","WADEABLE","SAMPLEABLE","WADEABLE","TS","T","NEWS",78.54316331,"YES"," ","YES",2004,1,"YES","REACHWIDE",2004,1,"YES"," ","YES",2004,1,"VT","VERMONT","BENNINGTON","REGION__1","EAST","S",299,26.31,"58","NORTHEASTERN HIGHLANDS","NAP","EHIGH","5.3.1","5.3","ATLANTIC HIGHLANDS","5","ATLANTIC HIGHLANDS","02","0201","020100","02010001","LAKE GEORGE"," "," " 
"NEWS04-2907",2004,1,"WARREN BROOK","EASTPROB"," ",-72.3491,43.1519,-72.349139,43.151889,"GPS",0,"NO DATA",07/21/2004,"Y","Y","WADEABLE","SAMPLEABLE","WADEABLE","TS","T","NEWS",128.759342,"YES"," ","YES",2004,1,"YES","REACHWIDE",2004,1,"YES"," ","YES",2004,1,"NH","NEW HAMPSHIRE","CHESHIRE","REGION__1","EAST","S",157,32.01,"58","NORTHEASTERN HIGHLANDS","NAP","EHIGH","5.3.1","5.3","ATLANTIC HIGHLANDS","5","ATLANTIC HIGHLANDS","01","0108","010801","01080104","UPPER CONNECTICUT-MASCOMA"," "," " 
"NEWS04-3004",2004,1,"COCHECO RIVER","EASTPROB"," ",-70.9967,43.3365,-70.99706,43.33661,"GPS",0,"NO DATA",08/10/2004,"Y","Y","WADEABLE","SAMPLEABLE","WADEABLE","TS","T","NEWS",895.6603023,"YES"," ","YES",2004,1,"YES","REACHWIDE",2004,1,"YES"," ","YES",2004,1,"NH","NEW HAMPSHIRE","STRAFFORD","REGION__1","EAST","S",70,225.55,"59","NORTHEASTERN COASTAL ZONE","NAP","EHIGH","8.1.7","8.1","MIXED WOOD PLAINS","8","MIXED WOOD PLAINS","01","0106","010600","01060003","PISCATAQUA-SALMON FALLS"," "," " 
"NEWS04-3102",2004,1,"KENNEBUNK RIVER","EASTPROB"," ",-70.5568,43.43982,-70.55745,43.44008,"GPS",0,"NO DATA",09/23/2004,"Y","Y","WADEABLE","SAMPLEABLE","WADEABLE","TS","T","NEWS",1156.288842,"YES"," ","YES",2004,1,"YES","REACHWIDE",2004,1,"YES"," ","YES",2004,1,"ME","MAINE","YORK","REGION__1","EAST","S",21,69.26,"59","NORTHEASTERN COASTAL ZONE","NAP","EHIGH","8.1.7","8.1","MIXED WOOD PLAINS","8","MIXED WOOD PLAINS","01","0106","010600","01060003","PISCATAQUA-SALMON FALLS"," "," " 
"NEWS04-3206",2004,1,"SAWMILL RIVER","EASTPROB"," ",-72.5282,42.5346,-72.52826,42.53458,"GPS",0,"NO DATA",07/22/2004,"Y","Y","WADEABLE","SAMPLEABLE","WADEABLE","TS","T","NEWS",124.3888822,"YES"," ","YES",2004,1,"YES","REACHWIDE",2004,1,"YES"," ","YES",2004,1,"MA","MASSACHUSETTS","FRANKLIN","REGION__1","EAST","S",66,62.76,"59","NORTHEASTERN COASTAL ZONE","NAP","EHIGH","8.1.7","8.1","MIXED WOOD PLAINS","8","MIXED WOOD PLAINS","01","0108","010802","01080201","MIDDLE CONNECTICUT"," "," " 
"NEWS04-3303",2004,1,"DINSMORE POND STREAM","EASTPROB"," ",-71.9962,42.911,-71.99683,42.91098,"GPS",0,"NO DATA",08/08/2004,"Y","Y","WADEABLE","SAMPLEABLE","WADEABLE","TS","T","NEWS",14.34416045,"YES"," ","YES",2004,1,"YES","REACHWIDE",2004,1,"YES"," ","YES",2004,1,"NH","NEW HAMPSHIRE","HILLSBOROUGH","REGION__1","EAST","R",289,70.89,"58","NORTHEASTERN HIGHLANDS","NAP","EHIGH","5.3.1","5.3","ATLANTIC HIGHLANDS","5","ATLANTIC HIGHLANDS","01","0107","010700","01070003","CONTOOCOOK"," "," " 
"NEWS04-3406",2004,1,"BEAVER BROOK","EASTPROB"," ",-71.3463,42.8474,-71.34685,42.84753,"GPS",0,"NO DATA",08/09/2004,"Y","Y","WADEABLE","SAMPLEABLE","WADEABLE","TS","T","NEWS",84.11826766,"YES"," ","YES",2004,1,"YES","REACHWIDE",2004,1,"YES"," ","YES",2004,1,"NH","NEW HAMPSHIRE","ROCKINGHAM","REGION__1","EAST","S",64,78.7,"59","NORTHEASTERN COASTAL ZONE","NAP","EHIGH","8.1.7","8.1","MIXED WOOD PLAINS","8","MIXED WOOD PLAINS","01","0107","010700","01070002","ME IMACK"," "," " 
"NEWS04-3504",2004,1,"MILL BROOK","EASTPROB"," ",-73.3305,41.8804,-73.330455,41.88043,"GPS",0,"NO DATA",07/11/2004,"Y","Y","WADEABLE","SAMPLEABLE","WADEABLE","TS","T","NEWS",160.8555469,"YES"," ","YES",2004,1,"YES","REACHWIDE",2004,1,"YES"," ","YES",2004,1,"CT","CONNECTICUT","LITCHFIELD","REGION__1","EAST","S",307,7.82,"58","NORTHEASTERN HIGHLANDS","NAP","EHIGH","5.3.1","5.3","ATLANTIC HIGHLANDS","5","ATLANTIC HIGHLANDS","01","0110","011000","01100005","HOUSATONIC"," "," " 
"NEWS04-3603",2004,1,"WILLAMANTIC RIVER","EASTPROB","Y",-72.3036,41.9508,-72.303585,41.950769,"GPS",0,"NO DATA",07/12/2004,"Y","Y","WADEABLE","SAMPLEABLE","WADEABLE","TS","T","NEWS",529.3174764,"YES"," ","YES",2004,1,"YES","REACHWIDE",2004,1,"YES"," ","YES",2004,1,"CT","CONNECTICUT","TOLLAND","REGION__1","EAST","T",154,133.77,"59","NORTHEASTERN COASTAL ZONE","NAP","EHIGH","8.1.7","8.1","MIXED WOOD PLAINS","8","MIXED WOOD PLAINS","01","0110","011000","01100002","SHETUCKET"," "," " 
"NEWS04-3603",2004,2,"WILLIMANTIC","EASTPROB","Y",-72.3036,41.9508,-72.303585,41.950769,"PREV. VISIT",0,"NO DATA",08/06/2004,"N","Y","WADEABLE","SAMPLEABLE","WADEABLE","TS","T","NEWS", ,"NO"," ","NO",2004,1,"YES","REACHWIDE",2004,1,"NO"," ","NO",2004,1,"CT","CONNECTICUT","TOLLAND","REGION__1","EAST","T",154,133.77,"59","NORTHEASTERN COASTAL ZONE","NAP","EHIGH","8.1.7","8.1","MIXED WOOD PLAINS","8","MIXED WOOD PLAINS","01","0110","011000","01100002","SHETUCKET"," "," " 
"NEWS04-3701",2004,1,"STOP BROOK","EASTPROB"," ",-71.2981,42.0904,-71.29806,42.09043,"GPS",0,"NO DATA",07/17/2004,"Y","Y","WADEABLE","SAMPLEABLE","WADEABLE","TS","T","NEWS",429.2369538,"YES"," ","YES",2004,1,"YES","REACHWIDE",2004,1,"YES"," ","YES",2004,1,"MA","MASSACHUSETTS","NORFOLK","REGION__1","EAST","T",53,2.37,"59","NORTHEASTERN COASTAL ZONE","NAP","EHIGH","8.1.7","8.1","MIXED WOOD PLAINS","8","MIXED WOOD PLAINS","01","0109","010900","01090001","CHARLES"," "," " 
"NEWS04-3802",2004,1,"LONGWATER BROOK","EASTPROB"," ",-70.8737,42.1285,-70.873715,42.128453,"GPS",0,"NO DATA",07/18/2004,"Y","Y","WADEABLE","SAMPLEABLE","WADEABLE","TS","T","NEWS",35.31882634,"YES"," ","YES",2004,1,"YES","REACHWIDE",2004,1,"YES"," ","YES",2004,1,"MA","MASSACHUSETTS","PLYMOUTH","REGION__1","EAST","S",24,7.29,"59","NORTHEASTERN COASTAL ZONE","NAP","EHIGH","8.1.7","8.1","MIXED WOOD PLAINS","8","MIXED WOOD PLAINS","01","0109","010900","01090002","CAPE COD"," "," " 
"NEWS04-3901",2004,1,"SAUGATUCK","EASTPROB"," ",-73.4411,41.324,-73.44112,41.32398,"GPS",0,"NO DATA",07/08/2004,"Y","Y","WADEABLE","SAMPLEABLE","WADEABLE","TS","T","NEWS",13.1136071,"YES"," ","YES",2004,1,"YES","REACHWIDE",2004,1,"YES"," ","YES",2004,1,"CT","CONNECTICUT","FAIRFIELD","REGION__1","EAST","S",128,22.99,"59","NORTHEASTERN COASTAL ZONE","NAP","EHIGH","8.1.7","8.1","MIXED WOOD PLAINS","8","MIXED WOOD PLAINS","01","0110","011000","01100006","SAUGATUCK"," "," " 
"NEWS04-4003",2004,1,"STEELE BROOK","EASTPROB"," ",-72.8683,41.6369,-73.1157,41.61025,"GPS",0,"NO DATA",07/10/2004,"Y","Y","WADEABLE","SAMPLEABLE","WADEABLE","TS","T","NEWS",361.7266103,"YES"," ","YES",2004,1,"YES","REACHWIDE",2004,1,"YES"," ","YES",2004,1,"CT","CONNECTICUT","HARTFORD","REGION__1","EAST","T",51,10.21,"59","NORTHEASTERN COASTAL ZONE","NAP","EHIGH","8.1.7","8.1","MIXED WOOD PLAINS","8","MIXED WOOD PLAINS","01","0110","011000","01100004","QUINNIPIAC"," "," " 
"NEWS04-4104",2004,1,"PEASE BROOK","EASTPROB"," ",-72.1953,41.5979,-72.195304,41.597891,"GPS",0,"NO DATA",07/13/2004,"Y","Y","WADEABLE","SAMPLEABLE","WADEABLE","TS","T","NEWS",131.641024,"YES"," ","YES",2004,1,"YES","REACHWIDE",2004,1,"YES"," ","YES",2004,1,"CT","CONNECTICUT","NEW LONDON","REGION__1","EAST","S",68,24.54,"59","NORTHEASTERN COASTAL ZONE","NAP","EHIGH","8.1.7","8.1","MIXED WOOD PLAINS","8","MIXED WOOD PLAINS","01","0110","011000","01100003","THAMES"," "," " 
"NEWS04-4201",2004,1,"GREAT SWAMP BROOK","EASTPROB"," ",-71.1295,41.5589,-71.1295,41.5589,"GPS",0,"NO DATA",07/15/2004,"Y","Y","WADEABLE","SAMPLEABLE","WADEABLE","TS","T","NEWS",13.80075551,"YES"," ","YES",2004,1,"YES","REACHWIDE",2004,1,"YES"," ","YES",2004,1,"RI","RHODE ISLAND","NEWPORT","REGION__1","EAST","S",6,29.02,"59","NORTHEASTERN COASTAL ZONE","NAP","EHIGH","8.1.7","8.1","MIXED WOOD PLAINS","8","MIXED WOOD PLAINS","01","0109","010900","01090002","CAPE COD"," "," " 
"NEWS04-CT03",2004,1,"SALMON RIVER","EASTHAND"," ",-72.4282,41.5753,-72.428231,41.575342,"GPS", ," ",07/09/2004,"N","Y","WADEABLE","SAMPLEABLE","WADEABLE","TS","T"," ",0,"NO"," ","NO",2004,1,"YES","REACHWIDE",2004,1,"NO"," ","NO",2004,1,"CT","CONNECTICUT","NEW LONDON","REGION__1","EAST","R",47,212.62,"59","NORTHEASTERN COASTAL ZONE","NAP","EHIGH","8.1.7","8.1","MIXED WOOD PLAINS","8","MIXED WOOD PLAINS","01","0108","010802","01080205","LOWER CONNECTICUT"," "," " 
"NEWS04-CT05",2004,1,"SAUGATUCK","EASTHAND"," ",-73.3948,41.2945,-73.394831,41.294472,"GPS", ," ",07/07/2004,"N","Y","WADEABLE","SAMPLEABLE","WADEABLE","TS","T"," ",0,"NO"," ","NO",2004,1,"YES","REACHWIDE",2004,1,"NO"," ","NO",2004,1,"CT","CONNECTICUT","FAIRFIELD","REGION__1","EAST","S",90,53.34,"59","NORTHEASTERN COASTAL ZONE","NAP","EHIGH","8.1.7","8.1","MIXED WOOD PLAINS","8","MIXED WOOD PLAINS","01","0110","011000","01100006","SAUGATUCK"," "," " 
"NEWS04-ME04",2004,1,"GARDNER BROOK","EASTHAND"," ",-67.2406,46.7594,-67.24058,46.7594,"GPS", ," ",10/16/2004,"N","Y","WADEABLE","SAMPLEABLE","WADEABLE","TS","T"," ",0,"NO"," ","NO",2004,1,"YES","REACHWIDE",2004,1,"NO"," ","NO",2004,1,"ME","MAINE","AROOSTOCK","REGION__1","EAST","R",144,36.14,"82","LAURENTIAN PLAINS AND HILLS","NAP","EHIGH","5.3.1","5.3","ATLANTIC HIGHLANDS","5","ATLANTIC HIGHLANDS","01","0101","010100","01010004","AROOSTOOK"," "," " 
"NEWS04-ME05",2004,1,"NORTH BRANCH MEDUXNEKEAG RIVER","EASTHAND"," ",-67.8557,46.3041,-67.85567,46.30406,"GPS", ," ",10/17/2004,"N","Y","WADEABLE","SAMPLEABLE","WADEABLE","TS","T"," ",0,"NO"," ","NO",2004,1,"YES","REACHWIDE",2004,1,"NO"," ","NO",2004,1,"ME","MAINE","AROOSTOOK","REGION__1","EAST","T",118,294.12,"82","LAURENTIAN PLAINS AND HILLS","NAP","EHIGH","5.3.1","5.3","ATLANTIC HIGHLANDS","5","ATLANTIC HIGHLANDS","01","0101","010100","01010005","MEDUXNEKEAG"," "," " 
"NEWS04-NH01",2004,1,"CLEAR STREAM","EASTHAND"," ",-71.24184,44.81188,-71.24186,44.81218,"GPS", ," ",09/13/2004,"N","Y","WADEABLE","SAMPLEABLE","WADEABLE","TS","T"," ",0,"NO"," ","NO",2004,1,"YES","REACHWIDE",2004,1,"NO"," ","NO",2004,1,"NH","NEW HAMPSHIRE","COOS","REGION__1","EAST","R",407,52.29,"58","NORTHEASTERN HIGHLANDS","NAP","EHIGH","5.3.1","5.3","ATLANTIC HIGHLANDS","5","ATLANTIC HIGHLANDS","01","0104","010400","01040001","UPPER ANDROSCOGGIN"," "," " 
"NEWS04-NH03",2004,1,"WHITE FACE","EASTHAND"," ",-71.3746,43.86,-71.3753,43.85887,"GPS", ," ",08/11/2004,"N","Y","WADEABLE","SAMPLEABLE","WADEABLE","TS","T"," ",0,"NO"," ","NO",2004,1,"YES","REACHWIDE",2004,1,"NO"," ","NO",2004,1,"NH","NEW HAMPSHIRE","CARROLL","REGION__1","EAST","T",196,77.26,"58","NORTHEASTERN HIGHLANDS","NAP","EHIGH","5.3.1","5.3","ATLANTIC HIGHLANDS","5","ATLANTIC HIGHLANDS","01","0106","010600","01060002","SACO"," "," " 
"NEWS04-RI01",2004,1,"WOOD RIVER","EASTHAND"," ",-71.699,41.539,-71.699,41.539,"GPS", ," ",07/14/2004,"N","Y","WADEABLE","SAMPLEABLE","WADEABLE","TS","T"," ",0,"NO"," ","NO",2004,1,"YES","REACHWIDE",2004,1,"NO"," ","NO",2004,1,"RI","RHODE ISLAND","WASHINGTON","REGION__1","EAST","R",45,135.24,"59","NORTHEASTERN COASTAL ZONE","NAP","EHIGH","8.1.7","8.1","MIXED WOOD PLAINS","8","MIXED WOOD PLAINS","01","0109","010900","01090005","PAWCATUCK-WOOD"," "," " 
"NEWS04-ST03",2004,1,"GREEN RIVER","EASTHAND"," ",-72.6711,42.7033,-72.67123,42.70332,"GPS", ," ",07/20/2004,"N","Y","WADEABLE","SAMPLEABLE","WADEABLE","TS","T"," ",0,"NO"," ","NO",2004,1,"YES","REACHWIDE",2004,1,"NO"," ","NO",2004,1,"MA","MASSACHUSETTS","FRANKLIN","REGION__1","EAST","R",146,107.05,"58","NORTHEASTERN HIGHLANDS","NAP","EHIGH","5.3.1","5.3","ATLANTIC HIGHLANDS","5","ATLANTIC HIGHLANDS","01","0108","010802","01080203","DEERFIELD"," "," " 
"NEWS04-ST04",2004,1,"STILLWATER RIVER","EASTHAND"," ",-71.7912,42.4109,-71.79149,42.41085,"GPS", ," ",07/19/2004,"N","Y","WADEABLE","SAMPLEABLE","WADEABLE","TS","T"," ",0,"NO"," ","NO",2004,1,"YES","REACHWIDE",2004,1,"NO"," ","NO",2004,1,"MA","MASSACHUSETTS","WORCESTER","REGION__1","EAST","S",123,75.42,"59","NORTHEASTERN COASTAL ZONE","NAP","EHIGH","8.1.7","8.1","MIXED WOOD PLAINS","8","MIXED WOOD PLAINS","01","0107","010700","01070004","NASHUA"," "," " 
"NEWS04-VT01",2004,1,"EAST BRANCH","EASTHAND"," ",-71.9639,44.5603,-71.963889,44.560278,"GPS", ," ",08/21/2004,"N","Y","WADEABLE","SAMPLEABLE","WADEABLE","TS","T"," ",0,"NO"," ","NO",2004,1,"YES","REACHWIDE",2004,1,"NO"," ","NO",2004,1,"VT","VERMONT","CALEDONIA","REGION__1","EAST","R",226,198.81,"58","NORTHEASTERN HIGHLANDS","NAP","EHIGH","5.3.1","5.3","ATLANTIC HIGHLANDS","5","ATLANTIC HIGHLANDS","01","0108","010801","01080102","PASSUMPSIC"," "," " 
"NV102697",2004,1,"SOUTH FORK OWYHEE RIVER","WESTHAND"," ",-116.38388,41.49997,-116.38388,41.49997,"GPS",4,"4th",07/22/2004,"N","Y","WADEABLE","SAMPLEABLE","WADEABLE","TS","T"," ",0,"NO","YES","NO",2004,1,"NA"," ",2004,1,"NO","YES","NO",2004,1,"NV","NEVADA","ELKO","REGION__9","WEST","S",1634,1109.0203,"80","NORTHERN BASIN AND RANGE","XER","WMTNS","10.1.3","10.1","WESTERN INTERIOR BASINS AND RANGES","10","NORTH AMERICAN DESERTS","17","1705","170501","17050105","SOUTH FORK OWYHEE"," "," " 
"NV131801",2004,1,"SOUTH FORK HANK'S CREEK","WESTHAND"," ",-115.34339,41.37465,-115.34339,41.37465,"GPS",3,"3rd",07/08/2004,"N","Y","WADEABLE","SAMPLEABLE","WADEABLE","TS","T"," ",0,"NO","YES","NO",2004,1,"NA"," ",2004,1,"NO","YES","NO",2004,1,"NV","NEVADA","ELKO","REGION__9","WEST","S",1918,31.6104,"80","NORTHERN BASIN AND RANGE","XER","WMTNS","10.1.4","10.1","WESTERN INTERIOR BASINS AND RANGES","10","NORTH AMERICAN DESERTS","16","1604","160401","16040101","UPPER HUMBOLDT"," "," " 
"NV188836",2004,1,"POISON CANYON CREEK","WESTHAND"," ",-119.71251,40.06393,-119.71251,40.06393,"GPS",1," ",06/23/2004,"N","Y","WADEABLE","SAMPLEABLE","WADEABLE","TS","T"," ",0,"NO","YES","NO",2004,1,"NA"," ",2004,1,"NO","YES","NO",2004,1,"NV","NEVADA","WASHOE","REGION__9","WEST","S",1352,2.2175,"13","CENTRAL BASIN AND RANGE","XER","WMTNS","10.1.4","10.1","WESTERN INTERIOR BASINS AND RANGES","10","NORTH AMERICAN DESERTS","16","1605","160501","16050103","PYRAMID-WINNEMUCCA LAKES"," "," " 
"NV196887",2004,1,"MIDDLE FORK COLD CREEK","WESTHAND"," ",-115.36317,40.7479,-115.36317,40.7479,"GPS",1," ",07/11/2004,"N","Y","WADEABLE","SAMPLEABLE","WADEABLE","TS","T"," ",0,"NO","YES","NO",2004,1,"NA"," ",2004,1,"NO","YES","NO",2004,1,"NV","NEVADA","ELKO","REGION__9","WEST","R",2017,10.0628,"13","CENTRAL BASIN AND RANGE","XER","WMTNS","10.1.4","10.1","WESTERN INTERIOR BASINS AND RANGES","10","NORTH AMERICAN DESERTS","16","1604","160401","16040101","UPPER HUMBOLDT"," "," " 
"NV202758",2004,1,"RABBIT CREEK","WESTHAND"," ",-115.46502,40.64761,-115.46502,40.64761,"GPS",1," ",07/24/2004,"N","Y","WADEABLE","SAMPLEABLE","WADEABLE","TS","T"," ",0,"NO","YES","NO",2004,1,"NA"," ",2004,1,"NO","YES","NO",2004,1,"NV","NEVADA","ELKO","REGION__9","WEST","R",2470,5.2305,"13","CENTRAL BASIN AND RANGE","XER","WMTNS","10.1.4","10.1","WESTERN INTERIOR BASINS AND RANGES","10","NORTH AMERICAN DESERTS","16","1604","160401","16040101","UPPER HUMBOLDT"," "," " 
"NV249709",2004,1,"FRANKTOWN CREEK","WESTHAND"," ",-119.87503,39.25812,-119.87503,39.25812,"GPS",3,"3rd",08/11/2004,"N","Y","WADEABLE","SAMPLEABLE","WADEABLE","TS","T"," ",0,"NO","YES","NO",2004,1,"NA"," ",2004,1,"NO","YES","NO",2004,1,"NV","NEVADA","WASHOE","REGION__9","WEST","S",1969,55.5182,"5","SIERRA NEVADA","WMT","WMTNS","6.2.12","6.2","WESTERN CORDILLERA","6","WESTERN CORDILLERA","16","1605","160501","16050102","TRUCKEE"," "," " 
"NV295672",2004,1,"SPRING GULCH","WESTHAND"," ",-119.39595,38.73489,-119.39595,38.73489,"GPS",1," ",06/21/2004,"N","Y","WADEABLE","SAMPLEABLE","WADEABLE","TS","T"," ",0,"NO","YES","NO",2004,1,"NA"," ",2004,1,"NO","YES","NO",2004,1,"NV","NEVADA","LYON","REGION__9","WEST","S",1548,7.6366,"13","CENTRAL BASIN AND RANGE","XER","WMTNS","10.1.4","10.1","WESTERN INTERIOR BASINS AND RANGES","10","NORTH AMERICAN DESERTS","16","1605","160503","16050302","WEST WALKER"," "," " 
"NV315740",2004,1,"REESE RIVER","WESTHAND"," ",-117.40482,38.80562,-117.40482,38.80562,"GPS",3,"3rd",07/01/2004,"N","Y","WADEABLE","SAMPLEABLE","WADEABLE","TS","T"," ",0,"NO","YES","NO",2004,1,"NA"," ",2004,1,"NO","YES","NO",2004,1,"NV","NEVADA","NYE","REGION__9","WEST","R",2339,55.4972,"13","CENTRAL BASIN AND RANGE","XER","WMTNS","10.1.4","10.1","WESTERN INTERIOR BASINS AND RANGES","10","NORTH AMERICAN DESERTS","16","1604","160401","16040107","REESE"," "," " 
"NV323432",2004,1,"PINE CREEK","WESTHAND"," ",-116.8736,38.78786,-116.8736,38.78786,"GPS",3,"3rd",06/30/2004,"N","Y","WADEABLE","SAMPLEABLE","WADEABLE","TS","T"," ",0,"NO","YES","NO",2004,1,"NA"," ",2004,1,"NO","YES","NO",2004,1,"NV","NEVADA","NYE","REGION__9","WEST","R",2478,19.0128,"13","CENTRAL BASIN AND RANGE","XER","WMTNS","10.1.4","10.1","WESTERN INTERIOR BASINS AND RANGES","10","NORTH AMERICAN DESERTS","16","1606","160600","16060005","DIAMOND-MONITOR VALLEYS"," "," " 
"NV343320",2004,1,"BAKER CREEK","WESTHAND"," ",-114.2536,38.97387,-114.2536,38.97387,"GPS",2,"2nd",07/06/2004,"N","Y","WADEABLE","SAMPLEABLE","WADEABLE","TS","T"," ",0,"NO","YES","NO",2004,1,"NA"," ",2004,1,"NO","YES","NO",2004,1,"NV","NEVADA","WHITE PINE","REGION__9","WEST","R",2544,14.4837,"13","CENTRAL BASIN AND RANGE","XER","WMTNS","10.1.4","10.1","WESTERN INTERIOR BASINS AND RANGES","10","NORTH AMERICAN DESERTS","16","1602","160203","16020301","HAMLIN-SNAKE VALLEYS"," "," " 
"NV375117",2004,1,"TRAIL CANYON CREEK","WESTHAND"," ",-118.30884,37.86571,-118.30884,37.86571,"GPS",1," ",06/28/2004,"N","Y","WADEABLE","SAMPLEABLE","WADEABLE","TS","T"," ",0,"NO","YES","NO",2004,1,"NA"," ",2004,1,"NO","YES","NO",2004,1,"NV","NEVADA","ESMERALDA","REGION__9","WEST","S",2764,7.2891,"13","CENTRAL BASIN AND RANGE","XER","WMTNS","10.1.4","10.1","WESTERN INTERIOR BASINS AND RANGES","10","NORTH AMERICAN DESERTS","16","1606","160600","16060010","FISH LAKE-SODA SPRING VALLEYS"," "," " 
"NV379814",2004,1,"CHIATOVICH CREEK","WESTHAND"," ",-118.23588,37.81847,-118.23588,37.81847,"GPS",2,"2nd",06/27/2004,"N","Y","WADEABLE","SAMPLEABLE","WADEABLE","TS","T"," ",0,"NO","YES","NO",2004,1,"NA"," ",2004,1,"NO","YES","NO",2004,1,"NV","NEVADA","ESMERALDA","REGION__9","WEST","R",2196,29.9007,"13","CENTRAL BASIN AND RANGE","XER","WMTNS","10.1.4","10.1","WESTERN INTERIOR BASINS AND RANGES","10","NORTH AMERICAN DESERTS","16","1606","160600","16060010","FISH LAKE-SODA SPRING VALLEYS"," "," " 
"NV42032",2004,1,"MCDERMITT CREEK","WESTHAND"," ",-117.99999,41.99525,-117.99999,41.99525,"GPS",4,"4th",08/01/2004,"N","Y","WADEABLE","SAMPLEABLE","WADEABLE","TS","T"," ",0,"NO","YES","NO",2004,1,"NA"," ",2004,1,"NO","YES","NO",2004,1,"NV","NEVADA","HUMBOLDT","REGION__9","WEST","S",1502,408.8384,"80","NORTHERN BASIN AND RANGE","XER","WMTNS","10.1.3","10.1","WESTERN INTERIOR BASINS AND RANGES","10","NORTH AMERICAN DESERTS","16","1604","160402","16040201","UPPER QUINN"," "," " 
"NV47930",2004,1,"EAST FORK QUINN RIVER","WESTHAND"," ",-117.53136,41.98969,-117.53136,41.98969,"GPS", ," ",08/05/2004,"N","Y","WADEABLE","SAMPLEABLE","WADEABLE","TS","T"," ",0,"NO","YES","NO",2004,1,"NA"," ",2004,1,"NO","YES","NO",2004,1,"NV","NEVADA","HUMBOLDT","REGION__9","WEST","S",1492,236.3441,"80","NORTHERN BASIN AND RANGE","XER","WMTNS","10.1.4","10.1","WESTERN INTERIOR BASINS AND RANGES","10","NORTH AMERICAN DESERTS","16","1604","160402","16040201","UPPER QUINN"," "," " 
"NV50633",2004,1,"SOUTH FORK QUINN RIVER","WESTHAND"," ",-117.53528,41.94718,-117.53528,41.94718,"GPS", ," ",08/04/2004,"N","Y","WADEABLE","SAMPLEABLE","WADEABLE","TS","T"," ",0,"NO","YES","NO",2004,1,"NA"," ",2004,1,"NO","YES","NO",2004,1,"NV","NEVADA","HUMBOLDT","REGION__9","WEST","S",1513,56.231,"13","CENTRAL BASIN AND RANGE","XER","WMTNS","10.1.4","10.1","WESTERN INTERIOR BASINS AND RANGES","10","NORTH AMERICAN DESERTS","16","1604","160402","16040201","UPPER QUINN"," "," " 
"NV52961",2004,1,"ANDERSON CREEK","WESTHAND"," ",-117.40213,41.93489,-117.40213,41.93489,"GPS", ," ",08/02/2004,"N","Y","WADEABLE","SAMPLEABLE","WADEABLE","TS","T"," ",0,"NO","YES","NO",2004,1,"NA"," ",2004,1,"NO","YES","NO",2004,1,"NV","NEVADA","HUMBOLDT","REGION__9","WEST","S",1669,2.2657,"80","NORTHERN BASIN AND RANGE","XER","WMTNS","10.1.3","10.1","WESTERN INTERIOR BASINS AND RANGES","10","NORTH AMERICAN DESERTS","16","1604","160402","16040201","UPPER QUINN"," "," " 
"NV84955",2004,1,"EAST FORK JARBIDGE RIVER","WESTHAND"," ",-115.33009,41.92636,-115.33009,41.92636,"GPS",3,"3rd",07/18/2004,"N","Y","WADEABLE","SAMPLEABLE","WADEABLE","TS","T"," ",0,"NO","YES","NO",2004,1,"NA"," ",2004,1,"NO","YES","NO",2004,1,"NV","NEVADA","ELKO","REGION__9","WEST","R",1815,122.1761,"80","NORTHERN BASIN AND RANGE","XER","WMTNS","10.1.3","10.1","WESTERN INTERIOR BASINS AND RANGES","10","NORTH AMERICAN DESERTS","17","1705","170501","17050102","BRUNEAU"," "," " 
"NV87104",2004,1,"NORTH FORK SALMON FALLS CREEK","WESTHAND"," ",-114.92212,41.94493,-114.92212,41.94493,"GPS",6,"5th +",07/27/2004,"N","Y","WADEABLE","SAMPLEABLE","WADEABLE","TS","T"," ",0,"NO","YES","NO",2004,1,"NA"," ",2004,1,"NO","YES","NO",2004,1,"NV","NEVADA","ELKO","REGION__9","WEST","R",1866,93.5064,"80","NORTHERN BASIN AND RANGE","XER","WMTNS","10.1.3","10.1","WESTERN INTERIOR BASINS AND RANGES","10","NORTH AMERICAN DESERTS","17","1704","170402","17040213","SALMON FALLS"," "," " 
"NV94550",2004,1,"NORTH FORK LITTLE HUMBOLDT RIVER","WESTHAND"," ",-117.10958,41.50288,-117.10958,41.50288,"GPS",5,"5th +",07/29/2004,"N","Y","WADEABLE","SAMPLEABLE","WADEABLE","TS","T"," ",0,"NO","YES","NO",2004,1,"NA"," ",2004,1,"NO","YES","NO",2004,1,"NV","NEVADA","HUMBOLDT","REGION__9","WEST","S",1441,503.4523,"80","NORTHERN BASIN AND RANGE","XER","WMTNS","10.1.3","10.1","WESTERN INTERIOR BASINS AND RANGES","10","NORTH AMERICAN DESERTS","16","1604","160401","16040109","LITTLE HUMBOLDT"," "," " 
"ORSE04-R002",2004,1,"GOLD LAKE","WESTHAND"," ",-122.03084,43.64373,-122.03084,43.64373,"GPS",2,"2nd",09/01/2004,"N","Y","WADEABLE","SAMPLEABLE","WADEABLE","TS","T"," ",0,"NO","YES","NO",2004,1,"NA"," ",2004,1,"NO","YES","NO",2004,1,"OR","OREGON","LANE","REGION_10","WEST","S",1472,41.36,"4","CASCADES","WMT","WMTNS","6.2.7","6.2","WESTERN CORDILLERA","6","WESTERN CORDILLERA","17","1709","170900","17090001","MIDDLE FORK WILLAMETTE"," "," " 
"ORSE04-R003",2004,1,"BOULDER CREEK","WESTHAND"," ",-122.50774,43.33054,-122.50774,43.33054,"GPS",3,"3rd",08/31/2004,"N","Y","WADEABLE","SAMPLEABLE","WADEABLE","TS","T"," ",0,"NO","YES","NO",2004,1,"NA"," ",2004,1,"NO","YES","NO",2004,1,"OR","OREGON","DOUGLAS","REGION_10","WEST","R",701,60.9614,"4","CASCADES","WMT","WMTNS","6.2.7","6.2","WESTERN CORDILLERA","6","WESTERN CORDILLERA","17","1710","171003","17100301","NORTH UMPQUA"," "," " 
"ORSE04-R005",2004,1,"GUANO_CK_HART_MTN","WESTHAND"," ",-119.72094,42.3827,-119.72094,42.3827,"GPS",3,"3rd",06/24/2004,"N","Y","WADEABLE","SAMPLEABLE","WADEABLE","TS","T"," ",0,"NO","YES","NO",2004,1,"NA"," ",2004,1,"NO","YES","NO",2004,1,"OR","OREGON","LAKE","REGION_10","WEST","S",1789,33.2479,"80","NORTHERN BASIN AND RANGE","XER","WMTNS","10.1.3","10.1","WESTERN INTERIOR BASINS AND RANGES","10","NORTH AMERICAN DESERTS","17","1712","171200","17120008","GUANO"," "," " 
"ORSE04-R009",2004,1,"WILDHORSE CREEK","WESTHAND"," ",-118.59834,42.59043,-118.59834,42.59043,"GPS",2,"2nd",06/30/2004,"N","Y","PARTIAL WADEABLE","SAMPLEABLE","PARBYWADE","TS","T"," ",0,"NO","YES","NO",2004,1,"NA"," ",2004,1,"NO","YES","NO",2004,1,"OR","OREGON","HARNEY","REGION_10","WEST","R",1922,13.1005,"80","NORTHERN BASIN AND RANGE","XER","WMTNS","10.1.3","10.1","WESTERN INTERIOR BASINS AND RANGES","10","NORTH AMERICAN DESERTS","17","1712","171200","17120009","ALVORD LAKE"," "," " 
"ORSE04-R010",2004,1,"LITTLE WILDHORSE CREEK","WESTHAND"," ",-118.59338,42.60206,-118.59338,42.60206,"GPS",1," ",06/30/2004,"N","Y","WADEABLE","SAMPLEABLE","WADEABLE","TS","T"," ",0,"NO","YES","NO",2004,1,"NA"," ",2004,1,"NO","YES","NO",2004,1,"OR","OREGON","HARNEY","REGION_10","WEST","R",2065,5.1748,"80","NORTHERN BASIN AND RANGE","XER","WMTNS","10.1.3","10.1","WESTERN INTERIOR BASINS AND RANGES","10","NORTH AMERICAN DESERTS","17","1712","171200","17120009","ALVORD LAKE"," "," " 
"ORSE04-R011",2004,1,"WILLOW CREEK_NEAR HUNTERS CABIN","WESTHAND"," ",-118.51607,42.6779,-118.51607,42.6779,"GPS",2,"2nd",06/28/2004,"N","Y","WADEABLE","SAMPLEABLE","WADEABLE","TS","T"," ",0,"NO","YES","NO",2004,1,"NA"," ",2004,1,"NO","YES","NO",2004,1,"OR","OREGON","HARNEY","REGION_10","WEST","R",1574,7.5156,"80","NORTHERN BASIN AND RANGE","XER","WMTNS","10.1.3","10.1","WESTERN INTERIOR BASINS AND RANGES","10","NORTH AMERICAN DESERTS","17","1712","171200","17120009","ALVORD LAKE"," "," " 
"ORSE04-R014",2004,1,"WILLIAMSON RIVER","WESTHAND"," ",-121.45684,42.83172,-121.45684,42.83172,"GPS",4,"4th",09/01/2004,"N","Y","WADEABLE","SAMPLEABLE","WADEABLE","TS","T"," ",0,"NO","YES","NO",2004,1,"NA"," ",2004,1,"NO","YES","NO",2004,1,"OR","OREGON","KLAMATH","REGION_10","WEST","S",1393,349.8366,"9","EASTERN CASCADES SLOPES AND FOOTHILLS","WMT","WMTNS","6.2.8","6.2","WESTERN CORDILLERA","6","WESTERN CORDILLERA","18","1801","180102","18010201","WILLIAMSON"," "," " 
"ORSE04-R015",2004,1,"ANNIE CREEK_WOOD RIVER","WESTHAND"," ",-122.05922,42.76615,-122.05922,42.76615,"GPS",3,"3rd",08/31/2004,"N","Y","WADEABLE","SAMPLEABLE","WADEABLE","TS","T"," ",0,"NO","YES","NO",2004,1,"NA"," ",2004,1,"NO","YES","NO",2004,1,"OR","OREGON","KLAMATH","REGION_10","WEST","S",1325,72.4084,"9","EASTERN CASCADES SLOPES AND FOOTHILLS","WMT","WMTNS","6.2.8","6.2","WESTERN CORDILLERA","6","WESTERN CORDILLERA","18","1801","180102","18010203","UPPER KLAMATH LAKE"," "," " 
"ORSE04-R020",2004,1,"ROCK_CK_HART_MTN","WESTHAND"," ",-119.68224,42.53102,-119.68224,42.53102,"GPS",3,"3rd",06/23/2004,"N","Y","WADEABLE","SAMPLEABLE","WADEABLE","TS","T"," ",0,"NO","YES","NO",2004,1,"NA"," ",2004,1,"NO","YES","NO",2004,1,"OR","OREGON","LAKE","REGION_10","WEST","S",1757,31.5374,"80","NORTHERN BASIN AND RANGE","XER","WMTNS","10.1.3","10.1","WESTERN INTERIOR BASINS AND RANGES","10","NORTH AMERICAN DESERTS","17","1712","171200","17120008","GUANO"," "," " 
"ORSE04-R021",2004,1,"DEGARNO_CK_HART_MTN","WESTHAND"," ",-119.78429,42.47762,-119.78429,42.47762,"GPS",1," ",06/24/2004,"N","Y","WADEABLE","SAMPLEABLE","WADEABLE","TS","T"," ",0,"NO","YES","NO",2004,1,"NA"," ",2004,1,"NO","YES","NO",2004,1,"OR","OREGON","LAKE","REGION_10","WEST","S",1536,15.2441,"80","NORTHERN BASIN AND RANGE","XER","WMTNS","10.1.3","10.1","WESTERN INTERIOR BASINS AND RANGES","10","NORTH AMERICAN DESERTS","17","1712","171200","17120007","WARNER LAKES"," "," " 
"ORSE04-R022",2004,1,"WILLOW CK_NEAR WHITEHORSE RANCH","WESTHAND"," ",-118.21222,42.19177,-118.21222,42.19177,"GPS",3,"3rd",06/26/2004,"N","Y","WADEABLE","SAMPLEABLE","WADEABLE","TS","T"," ",0,"NO","YES","NO",2004,1,"NA"," ",2004,1,"NO","YES","NO",2004,1,"OR","OREGON","HARNEY","REGION_10","WEST","S",1562,44.4041,"80","NORTHERN BASIN AND RANGE","XER","WMTNS","10.1.3","10.1","WESTERN INTERIOR BASINS AND RANGES","10","NORTH AMERICAN DESERTS","17","1712","171200","17120009","ALVORD LAKE"," "," " 
"OWW04440-0004",2004,1,"MIDDLE FORK KENTUCKY RIVER","EASTPROB","Y",-83.455594,36.912623,-83.45552,36.91261,"GPS",1,"0-1st",09/16/2004,"Y","Y","WADEABLE","SAMPLEABLE","WADEABLE","TS","T","East",1589.651899,"YES"," ","YES",2004,1,"YES","REACHWIDE",2004,1,"YES"," ","YES",2004,1,"KY","KENTUCKY","LESLIE","REGION__4","EAST","T",444,11.37,"69","CENTRAL APPALACHIANS","SAP","EHIGH","8.4.2","8.4","OZARK, OUACHITA-APPALACHIAN FORESTS","8","OZARK, OUACHITA-APPALACHIAN FORESTS","05","0510","051002","05100202","MIDDLE FORK KENTUCKY"," "," " 
"OWW04440-0004",2004,2,"MIDDLE FORK KENTUCKY RIVER","EASTPROB","Y",-83.455594,36.912623,-83.45544,36.91264,"GPS",1,"0-1st",09/24/2004,"N","Y","WADEABLE","SAMPLEABLE","WADEABLE","TS","T","East", ,"NO"," ","NO",2004,1,"YES","REACHWIDE",2004,1,"NO"," ","NO",2004,1,"KY","KENTUCKY","LESLIE","REGION__4","EAST","T",444,11.37,"69","CENTRAL APPALACHIANS","SAP","EHIGH","8.4.2","8.4","OZARK, OUACHITA-APPALACHIAN FORESTS","8","OZARK, OUACHITA-APPALACHIAN FORESTS","05","0510","051002","05100202","MIDDLE FORK KENTUCKY"," "," " 
"OWW04440-0008",2004,1,"SALS CREEK","EASTPROB","Y",-89.597779,37.190539,-89.597779,37.190539,"GPS",2,"2nd",08/23/2004,"Y","Y","WADEABLE","SAMPLEABLE","WADEABLE","TS","T","East",923.5220429,"YES"," ","YES",2004,1,"YES","REACHWIDE",2004,1,"YES"," ","YES",2004,1,"MO","MISSOURI","SCOTT","REGION__7","EAST","S",110,11.84,"72","INTERIOR RIVER VALLEYS AND HILLS","TPL","PLNLOW","8.5.2","8.5","MISSISSIPPI ALLUVIAL AND SOUTHEAST USA COASTAL PLAINS","8","SOUTHEAST COASTAL PLAINS","07","0714","071401","07140107","WHITEWATER"," "," " 
"OWW04440-0008",2004,2,"SALS CREEK","EASTPROB","Y",-89.597779,37.190539,-89.597779,37.190539,"GPS",2,"2nd",09/16/2004,"N","Y","WADEABLE","SAMPLEABLE","WADEABLE","TS","T","East", ,"NO"," ","NO",2004,1,"YES","REACHWIDE",2004,1,"NO"," ","NO",2004,1,"MO","MISSOURI","SCOTT","REGION__7","EAST","S",110,11.84,"72","INTERIOR RIVER VALLEYS AND HILLS","TPL","PLNLOW","8.5.2","8.5","MISSISSIPPI ALLUVIAL AND SOUTHEAST USA COASTAL PLAINS","8","SOUTHEAST COASTAL PLAINS","07","0714","071401","07140107","WHITEWATER"," "," " 
"OWW04440-0010",2004,1,"NO NAME","EASTPROB","Y",-75.813561,40.001053,-75.81184,40.00186,"GPS",1,"0-1st",08/18/2004,"Y","Y","WADEABLE","SAMPLEABLE","WADEABLE","TS","T","East",1249.276033,"YES"," ","YES",2004,1,"YES","REACHWIDE",2004,1,"YES"," ","YES",2004,1,"PA","PENNSYLVANIA","CHESTER","REGION__3","EAST","T",127,3.35,"64","NORTHERN PIEDMONT","SAP","EHIGH","8.3.1","8.3","SOUTHEASTERN USA PLAINS","8","SOUTHEASTERN USA PLAINS","02","0204","020402","02040205","BRANDYWINE-CHRISTINA"," "," " 
"OWW04440-0010",2004,2,"NO NAME","EASTPROB","Y",-75.813561,40.001053,-75.81362,40.00122,"GPS",1,"0-1st",08/22/2004,"N","Y","WADEABLE","SAMPLEABLE","WADEABLE","TS","T","East", ,"NO"," ","NO",2004,1,"YES","REACHWIDE",2004,1,"NO"," ","NO",2004,1,"PA","PENNSYLVANIA","CHESTER","REGION__3","EAST","T",127,3.35,"64","NORTHERN PIEDMONT","SAP","EHIGH","8.3.1","8.3","SOUTHEASTERN USA PLAINS","8","SOUTHEASTERN USA PLAINS","02","0204","020402","02040205","BRANDYWINE-CHRISTINA"," "," " 
"OWW04440-0011",2004,1,"PRAIRIE CREEK","EASTPROB"," ",-92.069629,38.068629,-92.08122828,38.06459122,"GPS",2,"2nd",09/14/2004,"Y","Y","WADEABLE","SAMPLEABLE","WADEABLE","TS","T","East",1293.895299,"YES"," ","YES",2004,1,"YES","REACHWIDE",2004,1,"YES"," ","YES",2004,1,"MO","MISSOURI","MARIES","REGION__7","EAST","S",289,11.96,"39","OZARK HIGHLANDS","SAP","EHIGH","8.4.5","8.4","OZARK, OUACHITA-APPALACHIAN FORESTS","8","OZARK, OUACHITA-APPALACHIAN FORESTS","10","1029","102901","10290111","LOWER OSAGE"," ","X-SITE COORDS TAKEN ABOUT 100 M UPSTREAM FROM X-SITE DUE TO RIPARIAN VEG (CONVER" 
"OWW04440-0014",2004,1,"TOWN CREEK","EASTPROB","Y",-85.611202,34.715781,-85.61144,34.71579,"GPS",1,"0-1st",07/17/2004,"Y","Y","WADEABLE","SAMPLEABLE","WADEABLE","TS","T","East",2024.12168,"YES"," ","YES",2004,1,"YES","REACHWIDE",2004,1,"YES"," ","YES",2004,1,"AL","ALABAMA","DEKALB","REGION__4","EAST","S",481,2.49,"68","SOUTHWESTERN APPALACHIANS","SAP","EHIGH","8.4.9","8.4","OZARK, OUACHITA-APPALACHIAN FORESTS","8","OZARK, OUACHITA-APPALACHIAN FORESTS","06","0603","060300","06030001","GUNTERSVILLE LAKE"," "," " 
"OWW04440-0014",2004,2,"TOWN CREEK","EASTPROB","Y",-85.611202,34.715781,-85.61144,34.71599,"GPS",1,"0-1st",07/22/2004,"N","Y","WADEABLE","SAMPLEABLE","WADEABLE","TS","T","East", ,"NO"," ","NO",2004,1,"YES","REACHWIDE",2004,1,"NO"," ","NO",2004,1,"AL","ALABAMA","DEKALB","REGION__4","EAST","S",481,2.49,"68","SOUTHWESTERN APPALACHIANS","SAP","EHIGH","8.4.9","8.4","OZARK, OUACHITA-APPALACHIAN FORESTS","8","OZARK, OUACHITA-APPALACHIAN FORESTS","06","0603","060300","06030001","GUNTERSVILLE LAKE"," "," " 
"OWW04440-0015",2004,1,"COD CREEK","EASTPROB","Y",-75.66748,38.525471,-75.66805556,38.525555556,"GPS",1,"0-1st",10/19/2004,"Y","Y","WADEABLE","SAMPLEABLE","WADEABLE","TS","T","East",2380.435834,"YES"," ","YES",2004,1,"YES","REACHWIDE",2004,1,"YES"," ","YES",2004,1,"DE","DELAWARE","SUSSEX","REGION__3","EAST","S",10,1.77,"63","MIDDLE ATLANTIC COASTAL PLAIN","CPL","PLNLOW","8.5.1","8.5","MISSISSIPPI ALLUVIAL AND SOUTHEAST USA COASTAL PLAINS","8","SOUTHEAST COASTAL PLAINS","02","0206","020600","02060008","NANTICOKE"," "," " 
"OWW04440-0015",2004,2,"COD CREEK","EASTPROB","Y",-75.66748,38.525471,-75.66805556,38.525555556,"GPS",1,"0-1st",10/26/2004,"N","Y","WADEABLE","SAMPLEABLE","WADEABLE","TS","T","East", ,"NO"," ","NO",2004,1,"YES","REACHWIDE",2004,1,"NO"," ","NO",2004,1,"DE","DELAWARE","SUSSEX","REGION__3","EAST","S",10,1.77,"63","MIDDLE ATLANTIC COASTAL PLAIN","CPL","PLNLOW","8.5.1","8.5","MISSISSIPPI ALLUVIAL AND SOUTHEAST USA COASTAL PLAINS","8","SOUTHEAST COASTAL PLAINS","02","0206","020600","02060008","NANTICOKE"," "," " 
"OWW04440-0016",2004,1,"EAST BUREAU CREEK","EASTPROB","Y",-89.378115,41.349286,-89.37851,41.34927,"GPS",3,"3rd",07/28/2004,"Y","Y","WADEABLE","SAMPLEABLE","WADEABLE","TS","T","East",1865.497257,"YES"," ","YES",2004,1,"YES","REACHWIDE",2004,1,"YES"," ","YES",2004,1,"IL","ILLINOIS","BUREAU","REGION__5","EAST","S",159,103.87,"54","CENTRAL CORN BELT PLAINS","TPL","PLNLOW","8.2.3","8.2","CENTRAL USA PLAINS","8","CENTRAL USA PLAINS","07","0713","071300","07130001","LOWER ILLINOIS-SENACHWINE LAKE"," "," " 
"OWW04440-0016",2004,2,"EAST BUREAU CREEK","EASTPROB","Y",-89.378115,41.349286,-89.37844,41.34925,"GPS",3,"3rd",09/19/2004,"N","Y","WADEABLE","SAMPLEABLE","WADEABLE","TS","T","East", ,"NO"," ","NO",2004,1,"YES","REACHWIDE",2004,1,"NO"," ","NO",2004,1,"IL","ILLINOIS","BUREAU","REGION__5","EAST","S",159,103.87,"54","CENTRAL CORN BELT PLAINS","TPL","PLNLOW","8.2.3","8.2","CENTRAL USA PLAINS","8","CENTRAL USA PLAINS","07","0713","071300","07130001","LOWER ILLINOIS-SENACHWINE LAKE"," "," " 
"OWW04440-0017",2004,1,"MUD CREEK","EASTPROB","Y",-87.145475,33.358004,-87.14553,33.35829,"GPS",3,"3rd",07/14/2004,"Y","Y","WADEABLE","SAMPLEABLE","WADEABLE","TS","T","East",1494.919998,"YES"," ","YES",2004,1,"YES","REACHWIDE",2004,1,"YES"," ","YES",2004,1,"AL","ALABAMA","JEFFERSON","REGION__4","EAST","T",128,18.74,"68","SOUTHWESTERN APPALACHIANS","SAP","EHIGH","8.4.9","8.4","OZARK, OUACHITA-APPALACHIAN FORESTS","8","OZARK, OUACHITA-APPALACHIAN FORESTS","03","0316","031601","03160112","UPPER BLACK WA IOR"," "," " 
"OWW04440-0017",2004,2,"MUD CREEK","EASTPROB","Y",-87.145475,33.358004,-87.14561,33.35851,"GPS",3,"3rd",07/21/2004,"N","Y","WADEABLE","SAMPLEABLE","WADEABLE","TS","T","East", ,"NO"," ","NO",2004,1,"YES","REACHWIDE",2004,1,"NO"," ","NO",2004,1,"AL","ALABAMA","JEFFERSON","REGION__4","EAST","T",128,18.74,"68","SOUTHWESTERN APPALACHIANS","SAP","EHIGH","8.4.9","8.4","OZARK, OUACHITA-APPALACHIAN FORESTS","8","OZARK, OUACHITA-APPALACHIAN FORESTS","03","0316","031601","03160112","UPPER BLACK WA IOR"," "," " 
"OWW04440-0019",2004,1,"SANDY CREEK","EASTPROB","Y",-96.592269,41.187327,-96.59254,41.18732,"GPS",4,"4th",07/14/2004,"Y","Y","WADEABLE","SAMPLEABLE","WADEABLE","TS","T","East",1987.020132,"YES"," ","YES",2004,1,"YES","REACHWIDE",2004,1,"YES"," ","YES",2004,1,"NE","NEBRASKA","SAUNDERS","REGION__7","EAST","T",352,236.05,"47","WESTERN CORN BELT PLAINS","TPL","PLNLOW","9.2.3","9.2","TEMPERATE PRAIRIES","9","TEMPERATE PRAIRIES","10","1020","102002","10200203","SALT"," "," " 
"OWW04440-0019",2004,2,"SANDY CREEK","EASTPROB","Y",-96.592269,41.187327,-96.59284,41.18733,"GPS",4,"4th",08/12/2004,"N","Y","WADEABLE","SAMPLEABLE","WADEABLE","TS","T","East", ,"NO"," ","NO",2004,1,"YES","REACHWIDE",2004,1,"NO"," ","NO",2004,1,"NE","NEBRASKA","SAUNDERS","REGION__7","EAST","T",352,236.05,"47","WESTERN CORN BELT PLAINS","TPL","PLNLOW","9.2.3","9.2","TEMPERATE PRAIRIES","9","TEMPERATE PRAIRIES","10","1020","102002","10200203","SALT"," "," " 
"OWW04440-0020",2004,1,"LITTLE FORK","EASTPROB","Y",-80.375038,38.325542,-80.375,38.325555556,"GPS",1,"0-1st",08/11/2004,"Y","Y","WADEABLE","SAMPLEABLE","WADEABLE","TS","T","East",3432.597682,"YES"," ","YES",2004,1,"YES","REACHWIDE",2004,1,"YES"," ","YES",2004,1,"WV","WEST VIRGINIA","WEBSTER","REGION__3","EAST","T",774,9.56,"69","CENTRAL APPALACHIANS","SAP","EHIGH","8.4.2","8.4","OZARK, OUACHITA-APPALACHIAN FORESTS","8","OZARK, OUACHITA-APPALACHIAN FORESTS","05","0505","050500","05050005","GAULEY"," "," " 
"OWW04440-0020",2004,2,"LITTLE FORK","EASTPROB","Y",-80.375038,38.325542,-80.37472222,38.325833333,"GPS",1,"0-1st",08/18/2004,"N","Y","WADEABLE","SAMPLEABLE","WADEABLE","TS","T","East", ,"NO"," ","NO",2004,1,"YES","REACHWIDE",2004,1,"NO"," ","NO",2004,1,"WV","WEST VIRGINIA","WEBSTER","REGION__3","EAST","T",774,9.56,"69","CENTRAL APPALACHIANS","SAP","EHIGH","8.4.2","8.4","OZARK, OUACHITA-APPALACHIAN FORESTS","8","OZARK, OUACHITA-APPALACHIAN FORESTS","05","0505","050500","05050005","GAULEY"," "," " 
"OWW04440-0021",2004,1,"UNKNOWN","EASTPROB","Y",-94.025326,33.692831,-94.02513,33.69262,"GPS",1,"0-1st",07/14/2004,"Y","Y","WADEABLE","SAMPLEABLE","WADEABLE","TS","T","East",1548.384923,"YES"," ","YES",2004,1,"YES","REACHWIDE",2004,1,"YES"," ","YES",2004,1,"AR","ARKANSAS","LITTLE RIVER","REGION__6","EAST","T",87,6.17,"35","SOUTH CENTRAL PLAINS","CPL","PLNLOW","8.3.7","8.3","SOUTHEASTERN USA PLAINS","8","SOUTHEASTERN USA PLAINS","11","1114","111401","11140109","LOWER LITTLE"," "," " 
"OWW04440-0021",2004,2,"BELL BROOK","EASTPROB","Y",-94.025326,33.692831,-94.02527778,33.692777778,"GPS",1,"0-1st",07/20/2004,"N","Y","WADEABLE","SAMPLEABLE","WADEABLE","TS","T","East", ,"NO"," ","NO",2004,1,"YES","REACHWIDE",2004,1,"NO"," ","NO",2004,1,"AR","ARKANSAS","LITTLE RIVER","REGION__6","EAST","T",87,6.17,"35","SOUTH CENTRAL PLAINS","CPL","PLNLOW","8.3.7","8.3","SOUTHEASTERN USA PLAINS","8","SOUTHEASTERN USA PLAINS","11","1114","111401","11140109","LOWER LITTLE"," "," " 
"OWW04440-0023",2004,1,"HEMLOCK CREEK","EASTPROB","Y",-89.988282,44.53038,-89.98861111,44.53038,"GPS",3,"3rd",07/15/2004,"Y","Y","WADEABLE","SAMPLEABLE","WADEABLE","TS","T","East",1055.264431,"YES"," ","YES",2004,1,"YES","REACHWIDE",2004,1,"YES"," ","YES",2004,1,"WI","WISCONSIN","WOOD","REGION__5","EAST","T",341,44.17,"51","NORTH CENTRAL HARDWOOD FORESTS","UMW","PLNLOW","8.1.4","8.1","MIXED WOOD PLAINS","8","MIXED WOOD PLAINS","07","0707","070700","07070003","CASTLE ROCK"," "," " 
"OWW04440-0023",2004,2,"HEMLOCK CREEK","EASTPROB","Y",-89.988282,44.53038,-89.98849,44.53036,"GPS",3,"3rd",07/22/2004,"N","Y","WADEABLE","SAMPLEABLE","WADEABLE","TS","T","East", ,"NO"," ","NO",2004,1,"YES","REACHWIDE",2004,1,"NO"," ","NO",2004,1,"WI","WISCONSIN","WOOD","REGION__5","EAST","T",341,44.17,"51","NORTH CENTRAL HARDWOOD FORESTS","UMW","PLNLOW","8.1.4","8.1","MIXED WOOD PLAINS","8","MIXED WOOD PLAINS","07","0707","070700","07070003","CASTLE ROCK"," "," " 
"OWW04440-0026",2004,1,"MYERS FORK","EASTPROB","Y",-81.254701,39.205418,-81.25472222,39.205555556,"GPS",2,"2nd",08/17/2004,"Y","Y","INTERRUPTED WADEABLE","SAMPLEABLE","INTWADE","TS","T","East",1782.24181,"YES"," ","YES",2004,1,"YES","REACHWIDE",2004,1,"YES"," ","YES",2004,1,"WV","WEST VIRGINIA","RITCHIE","REGION__3","EAST","S",223,10.54,"70","WESTERN ALLEGHENY PLATEAU","SAP","EHIGH","8.4.3","8.4","OZARK, OUACHITA-APPALACHIAN FORESTS","8","OZARK, OUACHITA-APPALACHIAN FORESTS","05","0503","050302","05030203","LITTLE KANAWHA"," "," " 
"OWW04440-0026",2004,2,"MYERS FORK","EASTPROB","Y",-81.254701,39.205418,-81.25472222,39.205555556,"GPS",2,"2nd",08/17/2004,"N","Y","INTERRUPTED WADEABLE","SAMPLEABLE","INTWADE","TS","T","East", ,"NO"," ","NO",2004,1,"YES","REACHWIDE",2004,1,"NO"," ","NO",2004,1,"WV","WEST VIRGINIA","RITCHIE","REGION__3","EAST","S",223,10.54,"70","WESTERN ALLEGHENY PLATEAU","SAP","EHIGH","8.4.3","8.4","OZARK, OUACHITA-APPALACHIAN FORESTS","8","OZARK, OUACHITA-APPALACHIAN FORESTS","05","0503","050302","05030203","LITTLE KANAWHA"," "," " 
"OWW04440-0029",2004,1,"COW HOUSE CREEK","EASTPROB","Y",-98.126858,31.590495,-98.12705,31.5905,"GPS",3,"3rd",06/20/2004,"Y","Y","WADEABLE","SAMPLEABLE","WADEABLE","TS","T","East",1027.969423,"YES"," ","YES",2004,1,"YES","REACHWIDE",2004,1,"YES"," ","YES",2004,1,"TX","TEXAS","HAMILTON","REGION__6","EAST","S",337,414.72,"29","CENTRAL OLKAHOMA/TEXAS PLAINS","SPL","PLNLOW","9.4.5","9.4","SOUTH CENTRAL SEMI-ARID PRAIRIES","9","SOUTH CENTRAL SEMI-ARID PRAIRIES","12","1207","120702","12070202","COWHOUSE"," "," " 
"OWW04440-0029",2004,2,"COWHOUSE CREEK","EASTPROB","Y",-98.126858,31.590495,-98.12708,31.59028,"GPS",3,"3rd",08/06/2004,"N","Y","WADEABLE","SAMPLEABLE","WADEABLE","TS","T","East", ,"NO"," ","NO",2004,1,"YES","REACHWIDE",2004,1,"NO"," ","NO",2004,1,"TX","TEXAS","HAMILTON","REGION__6","EAST","S",337,414.72,"29","CENTRAL OLKAHOMA/TEXAS PLAINS","SPL","PLNLOW","9.4.5","9.4","SOUTH CENTRAL SEMI-ARID PRAIRIES","9","SOUTH CENTRAL SEMI-ARID PRAIRIES","12","1207","120702","12070202","COWHOUSE"," "," " 
"OWW04440-0030",2004,1,"EAST TOXAWAY CREEK","EASTPROB","Y",-83.237095,34.74253,-83.23726,34.74253,"GPS",1,"0-1st",09/14/2004,"Y","Y","WADEABLE","SAMPLEABLE","WADEABLE","TS","T","East",1321.667675,"YES"," ","YES",2004,1,"YES","REACHWIDE",2004,1,"YES"," ","YES",2004,1,"SC","SOUTH CAROLINA","OCONEE","REGION__4","EAST","S",415,1.94,"66","BLUE RIDGE","SAP","EHIGH","8.4.4","8.4","OZARK, OUACHITA-APPALACHIAN FORESTS","8","OZARK, OUACHITA-APPALACHIAN FORESTS","03","0306","030601","03060102","TUGALOO"," "," " 
"OWW04440-0030",2004,2,"EAST TOXAWAY","EASTPROB","Y",-83.237095,34.74253,-83.23733,34.74253,"GPS",1,"0-1st",09/30/2004,"N","Y","WADEABLE","SAMPLEABLE","WADEABLE","TS","T","East", ,"NO"," ","NO",2004,1,"YES","REACHWIDE",2004,1,"NO"," ","NO",2004,1,"SC","SOUTH CAROLINA","OCONEE","REGION__4","EAST","S",415,1.94,"66","BLUE RIDGE","SAP","EHIGH","8.4.4","8.4","OZARK, OUACHITA-APPALACHIAN FORESTS","8","OZARK, OUACHITA-APPALACHIAN FORESTS","03","0306","030601","03060102","TUGALOO"," "," " 
"OWW04440-0032",2004,1,"MIDDLE CREEK","EASTPROB"," ",-85.84011,38.266739,-85.84024,38.26699,"GPS",2,"2nd",09/09/2004,"Y","Y","WADEABLE","SAMPLEABLE","WADEABLE","TS","T","East",1036.408949,"YES"," ","YES",2004,1,"YES","REACHWIDE",2004,1,"YES"," ","YES",2004,1,"KY","KENTUCKY","JEFFERSON","REGION__4","EAST","T",130,12.14,"71","INTERIOR PLATEAU","SAP","EHIGH","8.3.3","8.3","SOUTHEASTERN USA PLAINS","8","SOUTHEASTERN USA PLAINS","05","0514","051401","05140101","SILVER-LITTLE KENTUCKY"," "," " 
"OWW04440-0034",2004,1,"WHITNEY CREEK","EASTPROB","Y",-83.87287,44.219009,-83.87288,44.21904,"GPS",2,"2nd",10/05/2004,"Y","Y","WADEABLE","SAMPLEABLE","WADEABLE","TS","T","East",962.2872317,"YES"," ","YES",2004,1,"YES","REACHWIDE",2004,1,"YES"," ","YES",2004,1,"MI","MICHIGAN","IOSCO","REGION__5","EAST","S",233,33.29,"50","NORTHERN LAKES AND FORESTS","UMW","PLNLOW","8.1.4","8.1","MIXED WOOD PLAINS","8","MIXED WOOD PLAINS","04","0408","040801","04080101","AU GRES-RIFLE"," "," " 
"OWW04440-0034",2004,2,"WHITNEY CREEK","EASTPROB","Y",-83.87287,44.219009,-83.87281,44.21905,"GPS",2,"2nd",10/29/2004,"N","Y","WADEABLE","SAMPLEABLE","WADEABLE","TS","T","East", ,"NO"," ","NO",2004,1,"YES","REACHWIDE",2004,1,"NO"," ","NO",2004,1,"MI","MICHIGAN","IOSCO","REGION__5","EAST","S",233,33.29,"50","NORTHERN LAKES AND FORESTS","UMW","PLNLOW","8.1.4","8.1","MIXED WOOD PLAINS","8","MIXED WOOD PLAINS","04","0408","040801","04080101","AU GRES-RIFLE"," "," " 
"OWW04440-0039",2004,1,"DIAMOND VALLEY CREEK","EASTPROB","Y",-91.106276,44.653166,-91.1065,44.6532,"GPS",2,"2nd",07/19/2004,"Y","Y","WADEABLE","SAMPLEABLE","WADEABLE","TS","T","East",741.8629571,"YES"," ","YES",2004,1,"YES","REACHWIDE",2004,1,"YES"," ","YES",2004,1,"WI","WISCONSIN","EAU CLAIRE","REGION__5","EAST","T",302,17.63,"52","DRIFTLESS AREA","UMW","PLNLOW","8.1.5","8.1","MIXED WOOD PLAINS","8","MIXED WOOD PLAINS","07","0705","070500","07050006","EAU CLAIRE"," "," " 
"OWW04440-0039",2004,2,"DIAMOND VALLEY CREEK","EASTPROB","Y",-91.106276,44.653166,-91.10652,44.65322,"GPS",2,"2nd",08/05/2004,"N","Y","WADEABLE","SAMPLEABLE","WADEABLE","TS","T","East", ,"NO"," ","NO",2004,1,"YES","REACHWIDE",2004,1,"NO"," ","NO",2004,1,"WI","WISCONSIN","EAU CLAIRE","REGION__5","EAST","T",302,17.63,"52","DRIFTLESS AREA","UMW","PLNLOW","8.1.5","8.1","MIXED WOOD PLAINS","8","MIXED WOOD PLAINS","07","0705","070500","07050006","EAU CLAIRE"," "," " 
"OWW04440-0040",2004,1,"INDIAN CREEK","EASTPROB","Y",-89.984272,38.964581,-89.98409,38.96475,"GPS",2,"2nd",07/28/2004,"Y","Y","WADEABLE","SAMPLEABLE","WADEABLE","TS","T","East",1050.789925,"YES"," ","YES",2004,1,"YES","REACHWIDE",2004,1,"YES"," ","YES",2004,1,"IL","ILLINOIS","MADISON","REGION__5","EAST","S",160,23.88,"72","INTERIOR RIVER VALLEYS AND HILLS","TPL","PLNLOW","8.3.2","8.3","SOUTHEASTERN USA PLAINS","8","SOUTHEASTERN USA PLAINS","07","0714","071401","07140101","CAHOKIA-JOACHIM"," "," " 
"OWW04440-0040",2004,2,"INDIAN CREEK","EASTPROB","Y",-89.984272,38.964581,-89.98409,38.96444,"GPS",2,"2nd",09/22/2004,"N","Y","WADEABLE","SAMPLEABLE","WADEABLE","TS","T","East", ,"NO"," ","NO",2004,1,"YES","REACHWIDE",2004,1,"NO"," ","NO",2004,1,"IL","ILLINOIS","MADISON","REGION__5","EAST","S",160,23.88,"72","INTERIOR RIVER VALLEYS AND HILLS","TPL","PLNLOW","8.3.2","8.3","SOUTHEASTERN USA PLAINS","8","SOUTHEASTERN USA PLAINS","07","0714","071401","07140101","CAHOKIA-JOACHIM"," "," " 
"OWW04440-0041",2004,1,"WATSON BAYOU","EASTPROB","Y",-93.38834,31.751762,-93.38866,31.75198,"GPS",1,"0-1st",06/16/2004,"Y","Y","WADEABLE","SAMPLEABLE","WADEABLE","TS","T","East",1321.335652,"YES"," ","YES",2004,1,"YES","REACHWIDE",2004,1,"YES"," ","YES",2004,1,"LA","LOUISIANA","NATCHITOCHES","REGION__6","EAST","T",63,1.94,"35","SOUTH CENTRAL PLAINS","CPL","PLNLOW","8.3.7","8.3","SOUTHEASTERN USA PLAINS","8","SOUTHEASTERN USA PLAINS","11","1114","111402","11140206","BAYOU PIERRE"," "," " 
"OWW04440-0041",2004,2,"WATSON BAYOU","EASTPROB","Y",-93.38834,31.751762,-93.38837,31.75206,"GPS",1,"0-1st",06/23/2004,"N","Y","WADEABLE","SAMPLEABLE","WADEABLE","TS","T","East", ,"NO"," ","NO",2004,1,"YES","REACHWIDE",2004,1,"NO"," ","NO",2004,1,"LA","LOUISIANA","NATCHITOCHES","REGION__6","EAST","T",63,1.94,"35","SOUTH CENTRAL PLAINS","CPL","PLNLOW","8.3.7","8.3","SOUTHEASTERN USA PLAINS","8","SOUTHEASTERN USA PLAINS","11","1114","111402","11140206","BAYOU PIERRE"," "," " 
"OWW04440-0043",2004,1,"BLACK RIVER","EASTPROB","Y",-90.062364,46.380687,-90.06238,46.38068,"GPS",2,"2nd",10/02/2004,"Y","Y","WADEABLE","SAMPLEABLE","WADEABLE","TS","T","East",913.1821223,"YES"," ","YES",2004,1,"YES","REACHWIDE",2004,1,"YES"," ","YES",2004,1,"MI","MICHIGAN","GOGEBIC","REGION__5","EAST","T",457,57.82,"50","NORTHERN LAKES AND FORESTS","UMW","PLNLOW","5.2.1","5.2","MIXED WOOD SHIELD","5","MIXED WOOD SHIELD","04","0402","040201","04020101","BLACK-PRESQUE ISLE"," "," " 
"OWW04440-0043",2004,2,"BLACK RIVER","EASTPROB","Y",-90.062364,46.380687,-90.06238,46.38068,"GPS",2,"2nd",10/26/2004,"N","Y","WADEABLE","SAMPLEABLE","WADEABLE","TS","T","East", ,"NO"," ","NO",2004,1,"YES","REACHWIDE",2004,1,"NO"," ","NO",2004,1,"MI","MICHIGAN","GOGEBIC","REGION__5","EAST","T",457,57.82,"50","NORTHERN LAKES AND FORESTS","UMW","PLNLOW","5.2.1","5.2","MIXED WOOD SHIELD","5","MIXED WOOD SHIELD","04","0402","040201","04020101","BLACK-PRESQUE ISLE"," "," " 
"OWW04440-0045",2004,1,"SAN ANTONIO 2","EASTPROB","Y",-106.486996,35.958652,-106.48666,35.95835,"GPS",3,"3rd",09/17/2004,"Y","Y","WADEABLE","SAMPLEABLE","WADEABLE","TS","T","East",357.5051642,"YES"," ","YES",2004,1,"YES","REACHWIDE",2004,1,"YES"," ","YES",2004,1,"NM","NEW MEXICO","SANDOVAL","REGION__6","EAST","S",2619,44.5,"21","SOUTHERN ROCKIES","WMT","WMTNS","6.2.14","6.2","WESTERN CORDILLERA","6","WESTERN CORDILLERA","13","1302","130202","13020202","JEMEZ"," "," " 
"OWW04440-0045",2004,2,"SAN ANTONIO","EASTPROB","Y",-106.486996,35.958652,-106.48676,35.95829,"GPS",3,"3rd",10/07/2004,"N","Y","WADEABLE","SAMPLEABLE","WADEABLE","TS","T","East", ,"NO"," ","NO",2004,1,"YES","REACHWIDE",2004,1,"NO"," ","NO",2004,1,"NM","NEW MEXICO","SANDOVAL","REGION__6","EAST","S",2619,44.5,"21","SOUTHERN ROCKIES","WMT","WMTNS","6.2.14","6.2","WESTERN CORDILLERA","6","WESTERN CORDILLERA","13","1302","130202","13020202","JEMEZ"," "," " 
"OWW04440-0046",2004,1,"MOUNTAINTOWN CREEK","EASTPROB","Y",-84.556201,34.775047,-84.555433,34.775066,"GPS",2,"2nd",08/19/2004,"Y","Y","WADEABLE","SAMPLEABLE","WADEABLE","TS","T","East",713.965397,"YES"," ","YES",2004,1,"YES","REACHWIDE",2004,1,"YES"," ","YES",2004,1,"GA","GEORGIA","GILMER","REGION__4","EAST","S",441,40.86,"66","BLUE RIDGE","SAP","EHIGH","8.4.4","8.4","OZARK, OUACHITA-APPALACHIAN FORESTS","8","OZARK, OUACHITA-APPALACHIAN FORESTS","03","0315","031501","03150102","COOSAWATTEE"," "," " 
"OWW04440-0046",2004,2,"MOUNTAINTOWN CREEK","EASTPROB","Y",-84.556201,34.775047,-84.555433,34.775066,"GPS",2,"2nd",10/05/2004,"N","Y","WADEABLE","SAMPLEABLE","WADEABLE","TS","T","East", ,"NO"," ","NO",2004,1,"YES","REACHWIDE",2004,1,"NO"," ","NO",2004,1,"GA","GEORGIA","GILMER","REGION__4","EAST","S",441,40.86,"66","BLUE RIDGE","SAP","EHIGH","8.4.4","8.4","OZARK, OUACHITA-APPALACHIAN FORESTS","8","OZARK, OUACHITA-APPALACHIAN FORESTS","03","0315","031501","03150102","COOSAWATTEE"," "," " 
"OWW04440-0048",2004,1,"UNNAMED CREEK","EASTPROB"," ",-91.033742,42.807136,-91.03349,42.80644,"GPS",1,"0-1st",07/09/2004,"Y","Y","WADEABLE","SAMPLEABLE","WADEABLE","TS","T","East",1428.828001,"YES"," ","YES",2004,1,"YES","REACHWIDE",2004,1,"YES"," ","YES",2004,1,"WI","WISCONSIN","GRANT","REGION__5","EAST","T",292,2.27,"52","DRIFTLESS AREA","UMW","PLNLOW","8.1.5","8.1","MIXED WOOD PLAINS","8","MIXED WOOD PLAINS","07","0706","070600","07060003","GRANT-LITTLE MAQUOKETA"," "," " 
"OWW04440-0050",2004,1,"UNKNOWN","EASTPROB","Y",-74.11618,41.418397,-74.11618,41.41845,"GPS",1,"0-1st",08/05/2004,"Y","Y","WADEABLE","SAMPLEABLE","WADEABLE","TS","T","East",2610.667566,"YES"," ","YES",2004,1,"YES","REACHWIDE",2004,1,"YES"," ","YES",2004,1,"NY","NEW YORK","ORANGE","REGION__2","EAST","T",104,5.73,"67","RIDGE AND VALLEY","SAP","EHIGH","8.4.1","8.4","OZARK, OUACHITA-APPALACHIAN FORESTS","8","OZARK, OUACHITA-APPALACHIAN FORESTS","02","0202","020200","02020008","HUDSON-WAPPINGER"," "," " 
"OWW04440-0050",2004,2,"U.T. TO MOODNA CREEK","EASTPROB","Y",-74.11618,41.418397,-74.1164,41.41846,"GPS",1,"0-1st",08/17/2004,"N","Y","WADEABLE","SAMPLEABLE","WADEABLE","TS","T","East", ,"NO"," ","NO",2004,1,"YES","REACHWIDE",2004,1,"NO"," ","NO",2004,1,"NY","NEW YORK","ORANGE","REGION__2","EAST","T",104,5.73,"67","RIDGE AND VALLEY","SAP","EHIGH","8.4.1","8.4","OZARK, OUACHITA-APPALACHIAN FORESTS","8","OZARK, OUACHITA-APPALACHIAN FORESTS","02","0202","020200","02020008","HUDSON-WAPPINGER"," "," " 
"OWW04440-0051",2004,1,"TOLEN CREEK","EASTPROB","Y",-95.252582,37.352714,-95.25258,37.3527,"GPS",3,"3rd",09/14/2004,"Y","Y","WADEABLE","SAMPLEABLE","WADEABLE","TS","T","East",1206.748527,"YES"," ","YES",2004,1,"YES","REACHWIDE",2004,1,"YES"," ","YES",2004,1,"KS","KANSAS","LABETTE","REGION__7","EAST","S",262,35.92,"40","CENTRAL IRREGULAR PLAINS","TPL","PLNLOW","9.2.4","9.2","TEMPERATE PRAIRIES","9","TEMPERATE PRAIRIES","11","1107","110702","11070205","MIDDLE NEOSHO"," "," " 
